[{"title":"Aachen Hbf","lat":"50.7677122357041","lon":"6.09119653701783","license":"CC0 1.0 Universell (CC0 1.0)","name":"@Renaade","url":"https:\/\/fotos.railway-stations.org\/fotos\/de\/1_1.jpg"}, {"title":"Burkhardtsdorf","lat":"50.7332348866633","lon":"12.9323386287615","license":"CC0 1.0 Universell (CC0 1.0)","name":"@IngoCRunge","url":"https:\/\/fotos.railway-stations.org\/fotos\/de\/1001_0.jpg"}, {"title":"B\u00fcrstadt","lat":"49.6456955862251","lon":"8.45858752727508","license":"CC0 1.0 Universell (CC0 1.0)","name":"@mibi61","url":"https:\/\/fotos.railway-stations.org\/fotos\/de\/1002_1.jpg"}, {"title":"Buschow","lat":"52.5921427659388","lon":"12.6295137405396","license":"CC0 1.0 Universell (CC0 1.0)","name":"@RecumbentTravel","url":"https:\/\/fotos.railway-stations.org\/fotos\/de\/1005_1.jpg"}, {"title":"B\u00fcsenbachtal","lat":"53.2696408343905","lon":"9.85862642526626","license":"CC0 1.0 Universell (CC0 1.0)","name":"@Onkel_N","url":"https:\/\/fotos.railway-stations.org\/fotos\/de\/1006_0.jpg"}, {"title":"B\u00fcsum","lat":"54.1339086822718","lon":"8.86698203085871","license":"CC0 1.0 Universell (CC0 1.0)","name":"Horst Sievert","url":"https:\/\/fotos.railway-stations.org\/fotos\/de\/1008.jpg"}, {"title":"Buttenheim","lat":"49.7997318915676","lon":"11.0134876616129","license":"CC0 1.0 Universell (CC0 1.0)","name":"KatrinBechhold","url":"https:\/\/fotos.railway-stations.org\/fotos\/de\/1009.jpg"}, {"title":"B\u00fcttgen","lat":"51.1971792085346","lon":"6.60564788859554","license":"CC0 1.0 Universell (CC0 1.0)","name":"Volker Goebels","url":"https:\/\/fotos.railway-stations.org\/fotos\/de\/1011.jpg"}, {"title":"Buttst\u00e4dt","lat":"51.1268046561498","lon":"11.4180426299572","license":"CC0 1.0 Universell (CC0 1.0)","name":"@RecumbentTravel","url":"https:\/\/fotos.railway-stations.org\/fotos\/de\/1012.jpg"}, {"title":"Butzbach","lat":"50.4312567473345","lon":"8.66962226247599","license":"CC0 1.0 Universell (CC0 1.0)","name":"@stefanopitz","url":"https:\/\/fotos.railway-stations.org\/fotos\/de\/1013_1.jpg"}, {"title":"B\u00fctzow","lat":"53.8370567132943","lon":"11.9982433319092","license":"CC0 1.0 Universell (CC0 1.0)","name":"@tomcat_icke","url":"https:\/\/fotos.railway-stations.org\/fotos\/de\/1014_1.jpg"}, {"title":"Buxtehude","lat":"53.4705377829137","lon":"9.68748257528204","license":"CC0 1.0 Universell (CC0 1.0)","name":"@N1tr0glyc3r1n","url":"https:\/\/fotos.railway-stations.org\/fotos\/de\/1015.jpg"}, {"title":"Cadolzburg","lat":"49.4606491279432","lon":"10.8630931377411","license":"CC0 1.0 Universell (CC0 1.0)","name":"KatrinBechhold","url":"https:\/\/fotos.railway-stations.org\/fotos\/de\/1017.jpg"}, {"title":"Cainsdorf","lat":"50.686635321565","lon":"12.4964886903763","license":"CC0 1.0 Universell (CC0 1.0)","name":"@IngoCRunge","url":"https:\/\/fotos.railway-stations.org\/fotos\/de\/1018.jpg"}, {"title":"Calau (Niederlausitz)","lat":"51.7381968138794","lon":"13.9795410633087","license":"CC0 1.0 Universell (CC0 1.0)","name":"ingoebel","url":"https:\/\/fotos.railway-stations.org\/fotos\/de\/1019.jpg"}, {"title":"Calbe (Saale) Ost","lat":"51.9208026809104","lon":"11.8105602264404","license":"CC BY-SA 4.0","name":"@tmmd","url":"https:\/\/fotos.railway-stations.org\/fotos\/de\/1020_0.jpg"}, {"title":"Calbe (Saale) West","lat":"51.9056957095501","lon":"11.758816242218","license":"CC BY-SA 4.0","name":"@tmmd","url":"https:\/\/fotos.railway-stations.org\/fotos\/de\/1021.jpg"}, {"title":"Caldern","lat":"50.8529004738394","lon":"8.67031216272153","license":"CC0 1.0 Universell (CC0 1.0)","name":"@CaSch81","url":"https:\/\/fotos.railway-stations.org\/fotos\/de\/1023.jpg"}, {"title":"Calw","lat":"48.7146640599302","lon":"8.74185919761658","license":"CC0 1.0 Universell (CC0 1.0)","name":"JochenFrey","url":"https:\/\/fotos.railway-stations.org\/fotos\/de\/1025_1.jpg"}, {"title":"Camburg (Saale)","lat":"51.0510799256651","lon":"11.7048239707947","license":"CC0 1.0 Universell (CC0 1.0)","name":"@Bahnkalle","url":"https:\/\/fotos.railway-stations.org\/fotos\/de\/1026.jpg"}, {"title":"Cammin (Meckl)","lat":"53.4389610608552","lon":"13.2998023738889","license":"CC0 1.0 Universell (CC0 1.0)","name":"@okonow","url":"https:\/\/fotos.railway-stations.org\/fotos\/de\/1027.jpg"}, {"title":"Capelle (Westf)","lat":"51.7353010910501","lon":"7.61117577552795","license":"CC0 1.0 Universell (CC0 1.0)","name":"BirgitFranik","url":"https:\/\/fotos.railway-stations.org\/fotos\/de\/1028.jpg"}, {"title":"Caputh-Geltow","lat":"52.3503722273882","lon":"12.984564474823","license":"CC0 1.0 Universell (CC0 1.0)","name":"@thor11","url":"https:\/\/fotos.railway-stations.org\/fotos\/de\/1029_1.jpg"}, {"title":"Casekow","lat":"53.2134889541347","lon":"14.2082869101174","license":"CC0 1.0 Universell (CC0 1.0)","name":"@tomcat_icke","url":"https:\/\/fotos.railway-stations.org\/fotos\/de\/1032.jpg"}, {"title":"Castrop-Rauxel Hbf","lat":"51.5736089432999","lon":"7.30452060699462","license":"CC0 1.0 Universell (CC0 1.0)","name":"@okonow","url":"https:\/\/fotos.railway-stations.org\/fotos\/de\/1033.jpg"}, {"title":"Castrop-Rauxel S\u00fcd","lat":"51.5502947462427","lon":"7.31010854244232","license":"CC0 1.0 Universell (CC0 1.0)","name":"@okonow","url":"https:\/\/fotos.railway-stations.org\/fotos\/de\/1034.jpg"}, {"title":"Castrop-Rauxel-Merklinde","lat":"51.5278452240757","lon":"7.32435464859009","license":"CC0 1.0 Universell (CC0 1.0)","name":"@okonow","url":"https:\/\/fotos.railway-stations.org\/fotos\/de\/1035.jpg"}, {"title":"Celle Pbf","lat":"52.6208737510322","lon":"10.0625230510783","license":"CC0 1.0 Universell (CC0 1.0)","name":"@der_Himberger","url":"https:\/\/fotos.railway-stations.org\/fotos\/de\/1036_1.jpg"}, {"title":"Cham (Oberpf)","lat":"49.2218157097143","lon":"12.656923702785","license":"CC0 1.0 Universell (CC0 1.0)","name":"FlorianSchmidt","url":"https:\/\/fotos.railway-stations.org\/fotos\/de\/1037.jpg"}, {"title":"Lennestadt-Altenhundem","lat":"51.1040743566571","lon":"8.0714464187622","license":"CC0 1.0 Universell (CC0 1.0)","name":"@khgdrn","url":"https:\/\/fotos.railway-stations.org\/fotos\/de\/104_0.jpg"}, {"title":"Chemnitz Hbf","lat":"50.8395698762019","lon":"12.9305791854858","license":"CC0 1.0 Universell (CC0 1.0)","name":"@IngoCRunge","url":"https:\/\/fotos.railway-stations.org\/fotos\/de\/1040.jpg"}, {"title":"Chemnitz Kinderwaldst\u00e4tte","lat":"50.884261533848","lon":"12.9535558257302","license":"CC0 1.0 Universell (CC0 1.0)","name":"PhilippSchubert","url":"https:\/\/fotos.railway-stations.org\/fotos\/de\/1041.jpg"}, {"title":"Chemnitz Mitte","lat":"50.8265839728688","lon":"12.9127299785614","license":"CC0 1.0 Universell (CC0 1.0)","name":"@IngoCRunge","url":"https:\/\/fotos.railway-stations.org\/fotos\/de\/1042.jpg"}, {"title":"Chemnitz S\u00fcd","lat":"50.8234781597149","lon":"12.9260603772765","license":"CC0 1.0 Universell (CC0 1.0)","name":"@IngoCRunge","url":"https:\/\/fotos.railway-stations.org\/fotos\/de\/1044.jpg"}, {"title":"Chemnitz-Erfenschlag","lat":"50.787612373654","lon":"12.950215777164","license":"CC0 1.0 Universell (CC0 1.0)","name":"@IngoCRunge","url":"https:\/\/fotos.railway-stations.org\/fotos\/de\/1047.jpg"}, {"title":"Altenkirchen (Westerw)","lat":"50.6848809993225","lon":"7.63933181762696","license":"CC0 1.0 Universell (CC0 1.0)","name":"@lokfuehrer_tim","url":"https:\/\/fotos.railway-stations.org\/fotos\/de\/105_1.jpg"}, {"title":"Chemnitz-Hilbersdorf Hp","lat":"50.861968971796","lon":"12.9537239800329","license":"CC0 1.0 Universell (CC0 1.0)","name":"PhilippSchubert","url":"https:\/\/fotos.railway-stations.org\/fotos\/de\/1050.jpg"}, {"title":"Chemnitz-Reichenhain","lat":"50.7950423769105","lon":"12.9358357608362","license":"CC0 1.0 Universell (CC0 1.0)","name":"@IngoCRunge","url":"https:\/\/fotos.railway-stations.org\/fotos\/de\/1051.jpg"}, {"title":"Chemnitz-Siegmar","lat":"50.8155602123986","lon":"12.8429929505695","license":"CC0 1.0 Universell (CC0 1.0)","name":"@IngoCRunge","url":"https:\/\/fotos.railway-stations.org\/fotos\/de\/1053.jpg"}, {"title":"Chorin","lat":"52.9035631823235","lon":"13.8699979213933","license":"CC0 1.0 Universell (CC0 1.0)","name":"@tomcat_icke","url":"https:\/\/fotos.railway-stations.org\/fotos\/de\/1055_1.jpg"}, {"title":"Coburg","lat":"50.2630165106545","lon":"10.9574326872826","license":"CC0 1.0 Universell (CC0 1.0)","name":"@JoachimWeiss","url":"https:\/\/fotos.railway-stations.org\/fotos\/de\/1059.jpg"}, {"title":"Altenmarkt (Alz)","lat":"48.000736602231","lon":"12.5371277332306","license":"CC0 1.0 Universell (CC0 1.0)","name":"zwetschgenmann","url":"https:\/\/fotos.railway-stations.org\/fotos\/de\/106.jpg"}, {"title":"Coburg-Neuses","lat":"50.2781577634561","lon":"10.9508872936281","license":"CC0 1.0 Universell (CC0 1.0)","name":"Frankenbiker","url":"https:\/\/fotos.railway-stations.org\/fotos\/de\/1060.jpg"}, {"title":"Cochem (Mosel)","lat":"50.1531530744263","lon":"7.16680347919464","license":"CC0 1.0 Universell (CC0 1.0)","name":"@eGovBonn","url":"https:\/\/fotos.railway-stations.org\/fotos\/de\/1061.jpg"}, {"title":"Coesfeld (Westf)","lat":"51.9393229603478","lon":"7.16416266629254","license":"CC0 1.0 Universell (CC0 1.0)","name":"@RecumbentTravel","url":"https:\/\/fotos.railway-stations.org\/fotos\/de\/1062_1.jpg"}, {"title":"C\u00f6lbe","lat":"50.8483587348725","lon":"8.78758907318116","license":"CC0 1.0 Universell (CC0 1.0)","name":"@harald_legner","url":"https:\/\/fotos.railway-stations.org\/fotos\/de\/1063.jpg"}, {"title":"Contwig","lat":"49.245266078447","lon":"7.42790222167969","license":"CC0 1.0 Universell (CC0 1.0)","name":"@irgendlink","url":"https:\/\/fotos.railway-stations.org\/fotos\/de\/1068_0.jpg"}, {"title":"Leipzig Coppiplatz","lat":"51.3670634061781","lon":"12.3659734215055","license":"CC BY-SA 4.0","name":"@tmmd","url":"https:\/\/fotos.railway-stations.org\/fotos\/de\/1070.jpg"}, {"title":"Berlin Hauptbahnhof","lat":"52.5249931670462","lon":"13.3696973323822","license":"CC0 1.0 Universell (CC0 1.0)","name":"@RecumbentTravel","url":"https:\/\/fotos.railway-stations.org\/fotos\/de\/1071_0.jpg"}, {"title":"Coschen","lat":"52.0200647924951","lon":"14.7184100747108","license":"CC0 1.0 Universell (CC0 1.0)","name":"@eSGeEla","url":"https:\/\/fotos.railway-stations.org\/fotos\/de\/1072_1.jpg"}, {"title":"Coswig (Anh)","lat":"51.8879303403285","lon":"12.4578211225767","license":"CC0 1.0 Universell (CC0 1.0)","name":"@IngoCRunge","url":"https:\/\/fotos.railway-stations.org\/fotos\/de\/1075.jpg"}, {"title":"Coswig (Bz Dresden)","lat":"51.1227926454232","lon":"13.5795053222265","license":"CC0 1.0 Universell (CC0 1.0)","name":"@Freelancer_DD","url":"https:\/\/fotos.railway-stations.org\/fotos\/de\/1076.jpg"}, {"title":"Cottbus","lat":"51.750819554522","lon":"14.3241548538208","license":"CC0 1.0 Universell (CC0 1.0)","name":"@tomcat_icke","url":"https:\/\/fotos.railway-stations.org\/fotos\/de\/1077_1.jpg"}, {"title":"Crailsheim","lat":"49.1383719239714","lon":"10.0642240047455","license":"CC0 1.0 Universell (CC0 1.0)","name":"AndreasFranz","url":"https:\/\/fotos.railway-stations.org\/fotos\/de\/1079.jpg"}, {"title":"Altenseelbach","lat":"50.7838264452055","lon":"7.99243927001952","license":"CC0 1.0 Universell (CC0 1.0)","name":"@khgdrn","url":"https:\/\/fotos.railway-stations.org\/fotos\/de\/108_0.jpg"}, {"title":"Creidlitz","lat":"50.2273914877705","lon":"10.9818196485315","license":"CC0 1.0 Universell (CC0 1.0)","name":"Frankenbiker","url":"https:\/\/fotos.railway-stations.org\/fotos\/de\/1082.jpg"}, {"title":"Creu\u00dfen (Oberfr)","lat":"49.8501832708651","lon":"11.6282330859791","license":"CC0 1.0 Universell (CC0 1.0)","name":"@LiegeradTurust","url":"https:\/\/fotos.railway-stations.org\/fotos\/de\/1083.jpg"}, {"title":"Crimmitschau","lat":"50.8150605137128","lon":"12.3929515048025","license":"CC0 1.0 Universell (CC0 1.0)","name":"@IngoCRunge","url":"https:\/\/fotos.railway-stations.org\/fotos\/de\/1084.jpg"}, {"title":"Crivitz","lat":"53.5724371561225","lon":"11.6452503204346","license":"CC0 1.0 Universell (CC0 1.0)","name":"@harald_legner","url":"https:\/\/fotos.railway-stations.org\/fotos\/de\/1086_1.jpg"}, {"title":"Altenstadt (Hess)","lat":"50.2832723942614","lon":"8.94344508647919","license":"CC BY-SA 4.0","name":"Christian Nielebock","url":"https:\/\/fotos.railway-stations.org\/fotos\/de\/109_1.jpg"}, {"title":"Cursdorf","lat":"50.5718300284306","lon":"11.1316475755509","license":"CC BY-SA 4.0","name":"@tmmd","url":"https:\/\/fotos.railway-stations.org\/fotos\/de\/1094_1.jpg"}, {"title":"Cuxhaven","lat":"53.8602675805384","lon":"8.7046436200271","license":"CC0 1.0 Universell (CC0 1.0)","name":"@LarsiW","url":"https:\/\/fotos.railway-stations.org\/fotos\/de\/1095_1.jpg"}, {"title":"Dabendorf","lat":"52.2369265237264","lon":"13.4374165534973","license":"CC0 1.0 Universell (CC0 1.0)","name":"@Onkel_N","url":"https:\/\/fotos.railway-stations.org\/fotos\/de\/1098.jpg"}, {"title":"Dachau Bahnhof ","lat":"48.2545783079032","lon":"11.4443537481593","license":"CC0 1.0 Universell (CC0 1.0)","name":"zwetschgenmann","url":"https:\/\/fotos.railway-stations.org\/fotos\/de\/1099.jpg"}, {"title":"Altenstadt (Iller)","lat":"48.1612068093691","lon":"10.1101482320114","license":"CC0 1.0 Universell (CC0 1.0)","name":"AndreasFranz","url":"https:\/\/fotos.railway-stations.org\/fotos\/de\/110.jpg"}, {"title":"Dachau Stadt","lat":"48.2666194351601","lon":"11.4397260546684","license":"CC0 1.0 Universell (CC0 1.0)","name":"zwetschgenmann","url":"https:\/\/fotos.railway-stations.org\/fotos\/de\/1100.jpg"}, {"title":"Dachrieden","lat":"51.2694934959756","lon":"10.442269485618","license":"CC0 1.0 Universell (CC0 1.0)","name":"kasvx","url":"https:\/\/fotos.railway-stations.org\/fotos\/de\/1101.jpg"}, {"title":"Dachwig","lat":"51.0723700351656","lon":"10.8502247929573","license":"CC0 1.0 Universell (CC0 1.0)","name":"@khgdrn","url":"https:\/\/fotos.railway-stations.org\/fotos\/de\/1102.jpg"}, {"title":"Dahl","lat":"51.3034448272068","lon":"7.52782154674749","license":"CC0 1.0 Universell (CC0 1.0)","name":"Anonym","url":"https:\/\/fotos.railway-stations.org\/fotos\/de\/1103.jpg"}, {"title":"Dahlbruch","lat":"50.9704407576789","lon":"8.05360078811645","license":"CC0 1.0 Universell (CC0 1.0)","name":"Volker Goebels","url":"https:\/\/fotos.railway-stations.org\/fotos\/de\/1104.jpg"}, {"title":"Dahlem (Eifel)","lat":"50.3858284011259","lon":"6.55055791139603","license":"CC0 1.0 Universell (CC0 1.0)","name":"Volker Goebels","url":"https:\/\/fotos.railway-stations.org\/fotos\/de\/1105.jpg"}, {"title":"Dahlen (Sachs)","lat":"51.350932524148","lon":"12.9846721673867","license":"CC0 1.0 Universell (CC0 1.0)","name":"@IngoCRunge","url":"https:\/\/fotos.railway-stations.org\/fotos\/de\/1106_0.jpg"}, {"title":"Dahlenburg","lat":"53.1693313574737","lon":"10.7089489009751","license":"CC0 1.0 Universell (CC0 1.0)","name":"MartinKraft","url":"https:\/\/fotos.railway-stations.org\/fotos\/de\/1107.jpg"}, {"title":"Dahlerbr\u00fcck","lat":"51.2518208307371","lon":"7.51690745353698","license":"CC0 1.0 Universell (CC0 1.0)","name":"BirgitFranik","url":"https:\/\/fotos.railway-stations.org\/fotos\/de\/1108.jpg"}, {"title":"Dahlewitz","lat":"52.3263196444597","lon":"13.4198686480522","license":"CC0 1.0 Universell (CC0 1.0)","name":"@Onkel_N","url":"https:\/\/fotos.railway-stations.org\/fotos\/de\/1109.jpg"}, {"title":"Altentreptow","lat":"53.6920649448437","lon":"13.2427597045899","license":"CC0 1.0 Universell (CC0 1.0)","name":"@tomcat_icke","url":"https:\/\/fotos.railway-stations.org\/fotos\/de\/111_1.jpg"}, {"title":"Dalheim","lat":"51.1490840223916","lon":"6.17858111858368","license":"CC0 1.0 Universell (CC0 1.0)","name":"Volker Goebels","url":"https:\/\/fotos.railway-stations.org\/fotos\/de\/1114.jpg"}, {"title":"Dallau","lat":"49.3877366330307","lon":"9.18717384338379","license":"CC0 1.0 Universell (CC0 1.0)","name":"@stefanopitz","url":"https:\/\/fotos.railway-stations.org\/fotos\/de\/1115.jpg"}, {"title":"Dallgow-D\u00f6beritz","lat":"52.5436717141098","lon":"13.058050274849","license":"CC0 1.0 Universell (CC0 1.0)","name":"@tomcat_icke","url":"https:\/\/fotos.railway-stations.org\/fotos\/de\/1116_1.jpg"}, {"title":"Dannenberg Ost","lat":"53.1049987575893","lon":"11.1175056298574","license":"CC0 1.0 Universell (CC0 1.0)","name":"@der_Himberger","url":"https:\/\/fotos.railway-stations.org\/fotos\/de\/1121_1.jpg"}, {"title":"Dannenwalde (Kr Gransee)","lat":"53.0808971893933","lon":"13.1807899475098","license":"CC0 1.0 Universell (CC0 1.0)","name":"@tomcat_icke","url":"https:\/\/fotos.railway-stations.org\/fotos\/de\/1122_1.jpg"}, {"title":"Darching","lat":"47.8707939578192","lon":"11.7773008346558","license":"CC0 1.0 Universell (CC0 1.0)","name":"zwetschgenmann","url":"https:\/\/fotos.railway-stations.org\/fotos\/de\/1123.jpg"}, {"title":"Darmstadt Hbf","lat":"49.872698502638","lon":"8.62950723320241","license":"CC0 1.0 Universell (CC0 1.0)","name":"@akkrause","url":"https:\/\/fotos.railway-stations.org\/fotos\/de\/1126.jpg"}, {"title":"Darmstadt Nord","lat":"49.8920494384688","lon":"8.65390062332153","license":"CC0 1.0 Universell (CC0 1.0)","name":"@RecumbentTravel","url":"https:\/\/fotos.railway-stations.org\/fotos\/de\/1127_1.jpg"}, {"title":"Darmstadt Ost","lat":"49.8744473141535","lon":"8.67413625007368","license":"CC0 1.0 Universell (CC0 1.0)","name":"@stefanopitz","url":"https:\/\/fotos.railway-stations.org\/fotos\/de\/1128_1.jpg"}, {"title":"Darmstadt S\u00fcd","lat":"49.8545658316996","lon":"8.63695979118347","license":"CC0 1.0 Universell (CC0 1.0)","name":"@stefanopitz","url":"https:\/\/fotos.railway-stations.org\/fotos\/de\/1129_1.jpg"}, {"title":"Altenwillershagen","lat":"54.2593740611737","lon":"12.5737242838916","license":"CC0 1.0 Universell (CC0 1.0)","name":"@tomcat_icke","url":"https:\/\/fotos.railway-stations.org\/fotos\/de\/113_1.jpg"}, {"title":"Darmstadt-Arheilgen","lat":"49.9137167128005","lon":"8.6454587964065","license":"CC0 1.0 Universell (CC0 1.0)","name":"@stefanopitz","url":"https:\/\/fotos.railway-stations.org\/fotos\/de\/1130_1.jpg"}, {"title":"Darmstadt-Eberstadt","lat":"49.8144545099898","lon":"8.62592875957489","license":"CC0 1.0 Universell (CC0 1.0)","name":"@stefanopitz","url":"https:\/\/fotos.railway-stations.org\/fotos\/de\/1131_1.jpg"}, {"title":"Darmstadt-Kranichstein","lat":"49.9071825115888","lon":"8.67985172327175","license":"CC0 1.0 Universell (CC0 1.0)","name":"@stefanopitz","url":"https:\/\/fotos.railway-stations.org\/fotos\/de\/1132_1.jpg"}, {"title":"Dasing","lat":"48.3862358013068","lon":"11.0520377466755","license":"CC0 1.0 Universell (CC0 1.0)","name":"zwetschgenmann","url":"https:\/\/fotos.railway-stations.org\/fotos\/de\/1134.jpg"}, {"title":"Dattenfeld (Sieg)","lat":"50.8092839650166","lon":"7.54648804664612","license":"CC0 1.0 Universell (CC0 1.0)","name":"Volker Goebels","url":"https:\/\/fotos.railway-stations.org\/fotos\/de\/1135.jpg"}, {"title":"Dauenhof","lat":"53.8525698323152","lon":"9.68069464345522","license":"CC0 1.0 Universell (CC0 1.0)","name":"@N1tr0glyc3r1n","url":"https:\/\/fotos.railway-stations.org\/fotos\/de\/1136_1.jpg"}, {"title":"Daufenbach","lat":"49.8760067064741","lon":"6.64000153541565","license":"CC0 1.0 Universell (CC0 1.0)","name":"Volker Goebels","url":"https:\/\/fotos.railway-stations.org\/fotos\/de\/1138.jpg"}, {"title":"Dausenau","lat":"50.3270187107418","lon":"7.75812399387359","license":"CC0 1.0 Universell (CC0 1.0)","name":"@JoachimWeiss","url":"https:\/\/fotos.railway-stations.org\/fotos\/de\/1140_1.jpg"}, {"title":"Davensberg","lat":"51.8177415712822","lon":"7.59846210479736","license":"CC0 1.0 Universell (CC0 1.0)","name":"BirgitFranik","url":"https:\/\/fotos.railway-stations.org\/fotos\/de\/1141.jpg"}, {"title":"Dedensen \/ G\u00fcmmer","lat":"52.407006819305","lon":"9.52120625721244","license":"CC0 1.0 Universell (CC0 1.0)","name":"@N0rwi","url":"https:\/\/fotos.railway-stations.org\/fotos\/de\/1145.jpg"}, {"title":"Deggendorf Hbf","lat":"48.8394526325508","lon":"12.9498484304973","license":"CC0 1.0 Universell (CC0 1.0)","name":"FlorianSchmidt","url":"https:\/\/fotos.railway-stations.org\/fotos\/de\/1149.jpg"}, {"title":"Altglash\u00fctten-Falkau","lat":"47.859400417889","lon":"8.11389587142251","license":"CC0 1.0 Universell (CC0 1.0)","name":"@irgendlink","url":"https:\/\/fotos.railway-stations.org\/fotos\/de\/115.jpg"}, {"title":"Deidesheim","lat":"49.4083682445345","lon":"8.19259107112885","license":"CC0 1.0 Universell (CC0 1.0)","name":"@pihalbe","url":"https:\/\/fotos.railway-stations.org\/fotos\/de\/1151.jpg"}, {"title":"Deining (Oberpf)","lat":"49.2040119577414","lon":"11.5155904341373","license":"CC0 1.0 Universell (CC0 1.0)","name":"FlorianSchmidt","url":"https:\/\/fotos.railway-stations.org\/fotos\/de\/1152.jpg"}, {"title":"Deisenhofen","lat":"48.0195783449089","lon":"11.5835591783891","license":"CC0 1.0 Universell (CC0 1.0)","name":"zwetschgenmann","url":"https:\/\/fotos.railway-stations.org\/fotos\/de\/1153.jpg"}, {"title":"Delitzsch ob Bf","lat":"51.5197902818543","lon":"12.3465585708618","license":"CC0 1.0 Universell (CC0 1.0)","name":"@IngoCRunge","url":"https:\/\/fotos.railway-stations.org\/fotos\/de\/1155.jpg"}, {"title":"Delitzsch unt Bf","lat":"51.5247512833831","lon":"12.3455119696531","license":"CC BY-SA 4.0","name":"@tmmd","url":"https:\/\/fotos.railway-stations.org\/fotos\/de\/1156.jpg"}, {"title":"Dellfeld","lat":"49.2277761603786","lon":"7.46914225280306","license":"CC0 1.0 Universell (CC0 1.0)","name":"@irgendlink","url":"https:\/\/fotos.railway-stations.org\/fotos\/de\/1157_0.jpg"}, {"title":"Dellfeld Ort","lat":"49.2388674880956","lon":"7.47820615768433","license":"CC0 1.0 Universell (CC0 1.0)","name":"@irgendlink","url":"https:\/\/fotos.railway-stations.org\/fotos\/de\/1158_0.jpg"}, {"title":"Altglienicke","lat":"52.4069134198375","lon":"13.5582447052002","license":"CC0 1.0 Universell (CC0 1.0)","name":"@tomcat_icke","url":"https:\/\/fotos.railway-stations.org\/fotos\/de\/116_1.jpg"}, {"title":"Demker","lat":"52.5170750522744","lon":"11.8540871143341","license":"CC0 1.0 Universell (CC0 1.0)","name":"@RecumbentTravel","url":"https:\/\/fotos.railway-stations.org\/fotos\/de\/1161_1.jpg"}, {"title":"Demmin","lat":"53.901260313277","lon":"13.0537793371412","license":"CC0 1.0 Universell (CC0 1.0)","name":"@tomcat_icke","url":"https:\/\/fotos.railway-stations.org\/fotos\/de\/1162_1.jpg"}, {"title":"Densborn","lat":"50.1239074430378","lon":"6.60030841827393","license":"CC0 1.0 Universell (CC0 1.0)","name":"Volker Goebels","url":"https:\/\/fotos.railway-stations.org\/fotos\/de\/1164.jpg"}, {"title":"Denzlingen","lat":"48.0690824203921","lon":"7.8818247795105","license":"CC0 1.0 Universell (CC0 1.0)","name":"@khgdrn","url":"https:\/\/fotos.railway-stations.org\/fotos\/de\/1165_1.jpg"}, {"title":"Derkum","lat":"50.7048820664422","lon":"6.81665805001923","license":"CC0 1.0 Universell (CC0 1.0)","name":"Volker Goebels","url":"https:\/\/fotos.railway-stations.org\/fotos\/de\/1168.jpg"}, {"title":"Althegnenberg","lat":"48.2368219224884","lon":"11.061762324695","license":"CC0 1.0 Universell (CC0 1.0)","name":"Hans Schlegel","url":"https:\/\/fotos.railway-stations.org\/fotos\/de\/117.jpg"}, {"title":"Dernau","lat":"50.5297535701644","lon":"7.04162067626768","license":"CC0 1.0 Universell (CC0 1.0)","name":"Eiflmappr","url":"https:\/\/fotos.railway-stations.org\/fotos\/de\/1170_2.jpg"}, {"title":"Dernbach (Westerw)","lat":"50.4572442591528","lon":"7.78364360332489","license":"CC0 1.0 Universell (CC0 1.0)","name":"@khgdrn","url":"https:\/\/fotos.railway-stations.org\/fotos\/de\/1171.jpg"}, {"title":"Dessau Hbf","lat":"51.8398799115348","lon":"12.2348302602768","license":"CC BY-SA 4.0","name":"@tmmd","url":"https:\/\/fotos.railway-stations.org\/fotos\/de\/1173_1.jpg"}, {"title":"Dessau S\u00fcd","lat":"51.8019097246556","lon":"12.2366083977665","license":"CC0 1.0 Universell (CC0 1.0)","name":"AndreasFranz","url":"https:\/\/fotos.railway-stations.org\/fotos\/de\/1174_0.jpg"}, {"title":"Dessau-Alten","lat":"51.8253722348365","lon":"12.1925944515634","license":"CC BY-SA 4.0","name":"@tmmd","url":"https:\/\/fotos.railway-stations.org\/fotos\/de\/1176.jpg"}, {"title":"Dessau-Mosigkau","lat":"51.8140584214709","lon":"12.1487215788741","license":"CC BY-SA 4.0","name":"@tmmd","url":"https:\/\/fotos.railway-stations.org\/fotos\/de\/1177_0.jpg"}, {"title":"Dessauer Br\u00fccke","lat":"51.5000717999352","lon":"11.982325223776","license":"CC0 1.0 Universell (CC0 1.0)","name":"@flobotde","url":"https:\/\/fotos.railway-stations.org\/fotos\/de\/1178_3.jpg"}, {"title":"Detmold","lat":"51.9406970738875","lon":"8.87287701431074","license":"CC0 1.0 Universell (CC0 1.0)","name":"@Voland10557","url":"https:\/\/fotos.railway-stations.org\/fotos\/de\/1180_1.jpg"}, {"title":"Dettelbach Bahnhof","lat":"49.7875055039303","lon":"10.0910174846649","license":"CC0 1.0 Universell (CC0 1.0)","name":"Volker Goebels","url":"https:\/\/fotos.railway-stations.org\/fotos\/de\/1181.jpg"}, {"title":"Dettingen (Main)","lat":"50.0424582205985","lon":"9.03685220047436","license":"CC0 1.0 Universell (CC0 1.0)","name":"Thorsten S.","url":"https:\/\/fotos.railway-stations.org\/fotos\/de\/1182_1.jpg"}, {"title":"Dettingen (Teck)","lat":"48.6164955849651","lon":"9.45487836062057","license":"CC0 1.0 Universell (CC0 1.0)","name":"@tomcat_icke","url":"https:\/\/fotos.railway-stations.org\/fotos\/de\/1183.jpg"}, {"title":"Deuben (b Zeitz)","lat":"51.110683728142","lon":"12.0686906576157","license":"CC0 1.0 Universell (CC0 1.0)","name":"@IngoCRunge","url":"https:\/\/fotos.railway-stations.org\/fotos\/de\/1185.jpg"}, {"title":"Deuerling","lat":"49.0416683765143","lon":"11.9147972134223","license":"CC0 1.0 Universell (CC0 1.0)","name":"Volker Goebels","url":"https:\/\/fotos.railway-stations.org\/fotos\/de\/1186.jpg"}, {"title":"Deuten","lat":"51.7131235598911","lon":"6.97078227996826","license":"CC0 1.0 Universell (CC0 1.0)","name":"BirgitFranik","url":"https:\/\/fotos.railway-stations.org\/fotos\/de\/1187_1.jpg"}, {"title":"Altheim (Hess)","lat":"49.9233763755565","lon":"8.89105349779129","license":"CC0 1.0 Universell (CC0 1.0)","name":"@stefanopitz","url":"https:\/\/fotos.railway-stations.org\/fotos\/de\/119_1.jpg"}, {"title":"Deutzen","lat":"51.1145786821114","lon":"12.4195563165765","license":"CC0 1.0 Universell (CC0 1.0)","name":"@IngoCRunge","url":"https:\/\/fotos.railway-stations.org\/fotos\/de\/1190.jpg"}, {"title":"Diebach","lat":"50.1287847788752","lon":"9.83830280286552","license":"CC0 1.0 Universell (CC0 1.0)","name":"@storchp","url":"https:\/\/fotos.railway-stations.org\/fotos\/de\/1192.jpg"}, {"title":"Diebsteich","lat":"53.5688778262138","lon":"9.93423146009444","license":"CC0 1.0 Universell (CC0 1.0)","name":"@harald_legner","url":"https:\/\/fotos.railway-stations.org\/fotos\/de\/1193_1.jpg"}, {"title":"Dieburg","lat":"49.9035677895651","lon":"8.84103655815125","license":"CC0 1.0 Universell (CC0 1.0)","name":"@Isabel_Gaubatz","url":"https:\/\/fotos.railway-stations.org\/fotos\/de\/1194_1.jpg"}, {"title":"Diedorf (Schwab)","lat":"48.3561444666635","lon":"10.776994228363","license":"CC0 1.0 Universell (CC0 1.0)","name":"Hans Schlegel","url":"https:\/\/fotos.railway-stations.org\/fotos\/de\/1196.jpg"}, {"title":"Adelschlag","lat":"48.8406865443141","lon":"11.2114368784884","license":"CC0 1.0 Universell (CC0 1.0)","name":"@LiegeradTurust","url":"https:\/\/fotos.railway-stations.org\/fotos\/de\/12.jpg"}, {"title":"Dieringhausen","lat":"50.9856615463367","lon":"7.54316303631986","license":"CC BY-SA 4.0","name":"karin1210","url":"https:\/\/fotos.railway-stations.org\/fotos\/de\/1202.jpg"}, {"title":"Dieskau","lat":"51.450585633658","lon":"12.0508286043217","license":"CC BY-SA 4.0","name":"@tmmd","url":"https:\/\/fotos.railway-stations.org\/fotos\/de\/1204.jpg"}, {"title":"Die\u00dfen","lat":"47.9502364373827","lon":"11.1080119088919","license":"CC0 1.0 Universell (CC0 1.0)","name":"Hans Schlegel","url":"https:\/\/fotos.railway-stations.org\/fotos\/de\/1205_0.jpg"}, {"title":"Althof","lat":"54.0904511010799","lon":"11.9222590327263","license":"CC BY-SA 4.0","name":"@tmmd","url":"https:\/\/fotos.railway-stations.org\/fotos\/de\/121_0.jpg"}, {"title":"Diez","lat":"50.3701020730878","lon":"8.01951885223389","license":"CC0 1.0 Universell (CC0 1.0)","name":"@pihalbe","url":"https:\/\/fotos.railway-stations.org\/fotos\/de\/1211.jpg"}, {"title":"Diez Ost","lat":"50.3761304878581","lon":"8.03843021392821","license":"CC0 1.0 Universell (CC0 1.0)","name":"@pihalbe","url":"https:\/\/fotos.railway-stations.org\/fotos\/de\/1212.jpg"}, {"title":"Dillbrecht","lat":"50.8014867841852","lon":"8.20395469665527","license":"CC0 1.0 Universell (CC0 1.0)","name":"@stefanopitz","url":"https:\/\/fotos.railway-stations.org\/fotos\/de\/1213.jpg"}, {"title":"Dillenburg","lat":"50.7348251614908","lon":"8.29455765588225","license":"CC0 1.0 Universell (CC0 1.0)","name":"@stefanopitz","url":"https:\/\/fotos.railway-stations.org\/fotos\/de\/1214.jpg"}, {"title":"Dillingen (Donau)","lat":"48.5811830213436","lon":"10.4889929294586","license":"CC0 1.0 Universell (CC0 1.0)","name":"@LiegeradTurust","url":"https:\/\/fotos.railway-stations.org\/fotos\/de\/1215.jpg"}, {"title":"Dingden","lat":"51.7701835818895","lon":"6.60789728164673","license":"CC0 1.0 Universell (CC0 1.0)","name":"BirgitFranik","url":"https:\/\/fotos.railway-stations.org\/fotos\/de\/1217.jpg"}, {"title":"Dingolfing","lat":"48.6416078585185","lon":"12.4854040145874","license":"CC0 1.0 Universell (CC0 1.0)","name":"@wandklex","url":"https:\/\/fotos.railway-stations.org\/fotos\/de\/1220_15.jpg"}, {"title":"Dinkelscherben","lat":"48.3422145279774","lon":"10.5881742123635","license":"CC0 1.0 Universell (CC0 1.0)","name":"Hans Schlegel","url":"https:\/\/fotos.railway-stations.org\/fotos\/de\/1222.jpg"}, {"title":"Dinslaken","lat":"51.5673694290823","lon":"6.73803806304931","license":"CC0 1.0 Universell (CC0 1.0)","name":"BirgitFranik","url":"https:\/\/fotos.railway-stations.org\/fotos\/de\/1223.jpg"}, {"title":"Distelhausen","lat":"49.5983952314986","lon":"9.683666770105","license":"CC0 1.0 Universell (CC0 1.0)","name":"Gaby Becker","url":"https:\/\/fotos.railway-stations.org\/fotos\/de\/1228.jpg"}, {"title":"Ditfurt","lat":"51.8334088938707","lon":"11.1867007087259","license":"CC0 1.0 Universell (CC0 1.0)","name":"AndreasFranz","url":"https:\/\/fotos.railway-stations.org\/fotos\/de\/1229.jpg"}, {"title":"Dittersbach (b Frankenberg\/Sachs)","lat":"50.9267973306647","lon":"13.0687710642815","license":"CC0 1.0 Universell (CC0 1.0)","name":"@IngoCRunge","url":"https:\/\/fotos.railway-stations.org\/fotos\/de\/1231.jpg"}, {"title":"Dittersdorf","lat":"50.7515212001853","lon":"12.9788053035736","license":"CC0 1.0 Universell (CC0 1.0)","name":"@IngoCRunge","url":"https:\/\/fotos.railway-stations.org\/fotos\/de\/1232.jpg"}, {"title":"Dittigheim","lat":"49.6083510989586","lon":"9.67449817990882","license":"CC0 1.0 Universell (CC0 1.0)","name":"Gaby Becker","url":"https:\/\/fotos.railway-stations.org\/fotos\/de\/1233.jpg"}, {"title":"Ditzingen","lat":"48.8235886345354","lon":"9.06747042920414","license":"CC0 1.0 Universell (CC0 1.0)","name":"AndreasFranz","url":"https:\/\/fotos.railway-stations.org\/fotos\/de\/1234.jpg"}, {"title":"Dortmund-L\u00fctgendortmund","lat":"51.5007180879643","lon":"7.33418136835098","license":"CC0 1.0 Universell (CC0 1.0)","name":"@okonow","url":"https:\/\/fotos.railway-stations.org\/fotos\/de\/1235.jpg"}, {"title":"D\u00f6beln Hbf","lat":"51.1265882409213","lon":"13.0950242042541","license":"CC0 1.0 Universell (CC0 1.0)","name":"@RecumbentTravel","url":"https:\/\/fotos.railway-stations.org\/fotos\/de\/1236_1.jpg"}, {"title":"D\u00f6beln Zentrum","lat":"51.1160310251233","lon":"13.1248263136441","license":"CC0 1.0 Universell (CC0 1.0)","name":"@IngoCRunge","url":"https:\/\/fotos.railway-stations.org\/fotos\/de\/1237.jpg"}, {"title":"D\u00f6beritz","lat":"52.5242778654558","lon":"12.3681253194809","license":"CC0 1.0 Universell (CC0 1.0)","name":"@Onkel_N","url":"https:\/\/fotos.railway-stations.org\/fotos\/de\/1239.jpg"}, {"title":"Altmittweida","lat":"50.9690219390561","lon":"12.9596400260925","license":"CC0 1.0 Universell (CC0 1.0)","name":"@IngoCRunge","url":"https:\/\/fotos.railway-stations.org\/fotos\/de\/124_0.jpg"}, {"title":"Doberlug-Kirchhain","lat":"51.620619061302","lon":"13.564222854031","license":"CC0 1.0 Universell (CC0 1.0)","name":"@Onkel_N","url":"https:\/\/fotos.railway-stations.org\/fotos\/de\/1240.jpg"}, {"title":"Dobersch\u00fctz","lat":"51.4920151715326","lon":"12.7451840581664","license":"CC0 1.0 Universell (CC0 1.0)","name":"Leipzig auf Bildern","url":"https:\/\/fotos.railway-stations.org\/fotos\/de\/1242.jpg"}, {"title":"Dodendorf","lat":"52.0489992332057","lon":"11.6128564998508","license":"CC BY-SA 4.0","name":"@tmmd","url":"https:\/\/fotos.railway-stations.org\/fotos\/de\/1245_1.jpg"}, {"title":"D\u00f6ggingen","lat":"47.893599793129","lon":"8.44139850784302","license":"CC0 1.0 Universell (CC0 1.0)","name":"Hans Schlegel","url":"https:\/\/fotos.railway-stations.org\/fotos\/de\/1247.jpg"}, {"title":"Morschen-Altmorschen","lat":"51.067341730432","lon":"9.61093671943833","license":"CC0 1.0 Universell (CC0 1.0)","name":"Gaby Becker","url":"https:\/\/fotos.railway-stations.org\/fotos\/de\/125_1.jpg"}, {"title":"Dohna (Sachs)","lat":"50.9609439816409","lon":"13.8555639982224","license":"CC0 1.0 Universell (CC0 1.0)","name":"Thorsten S.","url":"https:\/\/fotos.railway-stations.org\/fotos\/de\/1250_1.jpg"}, {"title":"Dollern","lat":"53.545372572023","lon":"9.55806344747543","license":"CC0 1.0 Universell (CC0 1.0)","name":"@N1tr0glyc3r1n","url":"https:\/\/fotos.railway-stations.org\/fotos\/de\/1255.jpg"}, {"title":"Dollnstein","lat":"48.8713358470582","lon":"11.0788840485475","license":"CC0 1.0 Universell (CC0 1.0)","name":"@LiegeradTurust","url":"https:\/\/fotos.railway-stations.org\/fotos\/de\/1256.jpg"}, {"title":"D\u00f6llst\u00e4dt","lat":"51.0848470435599","lon":"10.8135645911935","license":"CC0 1.0 Universell (CC0 1.0)","name":"@khgdrn","url":"https:\/\/fotos.railway-stations.org\/fotos\/de\/1257.jpg"}, {"title":"Domb\u00fchl","lat":"49.2522874049554","lon":"10.2988538146019","license":"CC0 1.0 Universell (CC0 1.0)","name":"zwetschgenmann","url":"https:\/\/fotos.railway-stations.org\/fotos\/de\/1259.jpg"}, {"title":"Domnitz (SaalKr)","lat":"51.6352363182599","lon":"11.8399766888278","license":"CC0 1.0 Universell (CC0 1.0)","name":"@RecumbentTravel","url":"https:\/\/fotos.railway-stations.org\/fotos\/de\/1262_1.jpg"}, {"title":"Donauw\u00f6rth","lat":"48.7142467387067","lon":"10.7707927093301","license":"CC0 1.0 Universell (CC0 1.0)","name":"@LiegeradTurust","url":"https:\/\/fotos.railway-stations.org\/fotos\/de\/1265.jpg"}, {"title":"Dorfen Bahnhof","lat":"48.267133643121","lon":"12.1598660945892","license":"CC0 1.0 Universell (CC0 1.0)","name":"@stefanopitz","url":"https:\/\/fotos.railway-stations.org\/fotos\/de\/1268.jpg"}, {"title":"D\u00f6rfles-Esbach","lat":"50.282578396219","lon":"10.9970908253281","license":"CC0 1.0 Universell (CC0 1.0)","name":"Frankenbiker","url":"https:\/\/fotos.railway-stations.org\/fotos\/de\/1270.jpg"}, {"title":"Dorfmark","lat":"52.8992868440186","lon":"9.77141618728637","license":"CC0 1.0 Universell (CC0 1.0)","name":"@N1tr0glyc3r1n","url":"https:\/\/fotos.railway-stations.org\/fotos\/de\/1271.jpg"}, {"title":"Dorfprozelten","lat":"49.7795552361757","lon":"9.38208164513526","license":"CC0 1.0 Universell (CC0 1.0)","name":"Gaby Becker","url":"https:\/\/fotos.railway-stations.org\/fotos\/de\/1272_1.jpg"}, {"title":"Dorheim (Wetterau)","lat":"50.3526582494866","lon":"8.79097567349857","license":"CC0 1.0 Universell (CC0 1.0)","name":"@Dennyo218","url":"https:\/\/fotos.railway-stations.org\/fotos\/de\/1273_1.jpg"}, {"title":"Dormagen","lat":"51.0995166565719","lon":"6.81479329412635","license":"CC0 1.0 Universell (CC0 1.0)","name":"Volker Goebels","url":"https:\/\/fotos.railway-stations.org\/fotos\/de\/1274.jpg"}, {"title":"Dormagen Chempark","lat":"51.0766922516316","lon":"6.83830477040387","license":"CC0 1.0 Universell (CC0 1.0)","name":"AndreasFranz","url":"https:\/\/fotos.railway-stations.org\/fotos\/de\/1275.jpg"}, {"title":"Gro\u00df Gerau-Dornheim","lat":"49.877234924096","lon":"8.49370587373449","license":"CC0 1.0 Universell (CC0 1.0)","name":"Thorsten S.","url":"https:\/\/fotos.railway-stations.org\/fotos\/de\/1278_1.jpg"}, {"title":"Altranft","lat":"52.7633169731819","lon":"14.0823912620544","license":"CC0 1.0 Universell (CC0 1.0)","name":"@RecumbentTravel","url":"https:\/\/fotos.railway-stations.org\/fotos\/de\/128.jpg"}, {"title":"Dornstetten","lat":"48.4720674492157","lon":"8.49468747774759","license":"CC0 1.0 Universell (CC0 1.0)","name":"Anonym","url":"https:\/\/fotos.railway-stations.org\/fotos\/de\/1280.jpg"}, {"title":"Dorsten","lat":"51.6580136296058","lon":"6.97056530725838","license":"CC0 1.0 Universell (CC0 1.0)","name":"@RecumbentTravel","url":"https:\/\/fotos.railway-stations.org\/fotos\/de\/1284_1.jpg"}, {"title":"Dortelweil","lat":"50.2075276040548","lon":"8.75117897987366","license":"CC0 1.0 Universell (CC0 1.0)","name":"@schwoggel","url":"https:\/\/fotos.railway-stations.org\/fotos\/de\/1285_1.jpg"}, {"title":"Dortmund-Asseln Mitte","lat":"51.5262254496011","lon":"7.58388519287109","license":"CC0 1.0 Universell (CC0 1.0)","name":"@okonow","url":"https:\/\/fotos.railway-stations.org\/fotos\/de\/1287.jpg"}, {"title":"Dortmund-Germania","lat":"51.4981327809562","lon":"7.36374020576476","license":"CC0 1.0 Universell (CC0 1.0)","name":"@okonow","url":"https:\/\/fotos.railway-stations.org\/fotos\/de\/1288.jpg"}, {"title":"Dortmund Hbf","lat":"51.5178812814922","lon":"7.45917591339643","license":"CC0 1.0 Universell (CC0 1.0)","name":"@Renaade","url":"https:\/\/fotos.railway-stations.org\/fotos\/de\/1289_1.jpg"}, {"title":"Dortmund-Knappschaftskrankenhaus","lat":"51.5187443699313","lon":"7.53740072250367","license":"CC0 1.0 Universell (CC0 1.0)","name":"@okonow","url":"https:\/\/fotos.railway-stations.org\/fotos\/de\/1290.jpg"}, {"title":"Dortmund-M\u00f6llerbr\u00fccke","lat":"51.5071490511035","lon":"7.45171217928897","license":"CC0 1.0 Universell (CC0 1.0)","name":"@okonow","url":"https:\/\/fotos.railway-stations.org\/fotos\/de\/1291.jpg"}, {"title":"Dortmund-Stadthaus","lat":"51.5078725849025","lon":"7.46899187564851","license":"CC0 1.0 Universell (CC0 1.0)","name":"@okonow","url":"https:\/\/fotos.railway-stations.org\/fotos\/de\/1292.jpg"}, {"title":"Salmtal","lat":"49.9217962680434","lon":"6.83961027593749","license":"CC0 1.0 Universell (CC0 1.0)","name":"Volker Goebels","url":"https:\/\/fotos.railway-stations.org\/fotos\/de\/1293.jpg"}, {"title":"Dortmund-Tierpark","lat":"51.4782511805866","lon":"7.46199013691675","license":"CC0 1.0 Universell (CC0 1.0)","name":"@okonow","url":"https:\/\/fotos.railway-stations.org\/fotos\/de\/1294_0.jpg"}, {"title":"Dortmund-Universit\u00e4t","lat":"51.4927134570979","lon":"7.41769194602966","license":"CC0 1.0 Universell (CC0 1.0)","name":"@okonow","url":"https:\/\/fotos.railway-stations.org\/fotos\/de\/1295.jpg"}, {"title":"Dortmund-West","lat":"51.5096238903393","lon":"7.43881702423096","license":"CC0 1.0 Universell (CC0 1.0)","name":"@okonow","url":"https:\/\/fotos.railway-stations.org\/fotos\/de\/1296.jpg"}, {"title":"Dortmund Signal-Iduna-Park","lat":"51.4906786841991","lon":"7.45763114335204","license":"CC0 1.0 Universell (CC0 1.0)","name":"@JoachimWeiss","url":"https:\/\/fotos.railway-stations.org\/fotos\/de\/1297_1.jpg"}, {"title":"Dortmund-Aplerbeck","lat":"51.4900948511981","lon":"7.55327224731445","license":"CC0 1.0 Universell (CC0 1.0)","name":"@okonow","url":"https:\/\/fotos.railway-stations.org\/fotos\/de\/1298.jpg"}, {"title":"Dortmund-Aplerbeck S\u00fcd","lat":"51.4846166687747","lon":"7.54964590072632","license":"CC0 1.0 Universell (CC0 1.0)","name":"@okonow","url":"https:\/\/fotos.railway-stations.org\/fotos\/de\/1299.jpg"}, {"title":"Altshausen","lat":"47.9308003693678","lon":"9.55143213272095","license":"CC0 1.0 Universell (CC0 1.0)","name":"@LiegeradTurust","url":"https:\/\/fotos.railway-stations.org\/fotos\/de\/130.jpg"}, {"title":"Dortmund-Barop","lat":"51.4767075920836","lon":"7.43132315119917","license":"CC0 1.0 Universell (CC0 1.0)","name":"@okonow","url":"https:\/\/fotos.railway-stations.org\/fotos\/de\/1300.jpg"}, {"title":"Dortmund-B\u00f6vinghausen","lat":"51.518590921189","lon":"7.32751934309685","license":"CC0 1.0 Universell (CC0 1.0)","name":"@okonow","url":"https:\/\/fotos.railway-stations.org\/fotos\/de\/1301.jpg"}, {"title":"Dortmund-Brackel","lat":"51.5206581479813","lon":"7.54997491836548","license":"CC0 1.0 Universell (CC0 1.0)","name":"@okonow","url":"https:\/\/fotos.railway-stations.org\/fotos\/de\/1302.jpg"}, {"title":"Dortmund-Derne","lat":"51.567630630054","lon":"7.52872645854951","license":"CC0 1.0 Universell (CC0 1.0)","name":"@okonow","url":"https:\/\/fotos.railway-stations.org\/fotos\/de\/1303_0.jpg"}, {"title":"Dortmund-Dorstfeld","lat":"51.5092551176825","lon":"7.42420343259027","license":"CC0 1.0 Universell (CC0 1.0)","name":"@okonow","url":"https:\/\/fotos.railway-stations.org\/fotos\/de\/1304.jpg"}, {"title":"Dortmund-Dorstfeld S\u00fcd","lat":"51.500728628702","lon":"7.41995382112096","license":"CC0 1.0 Universell (CC0 1.0)","name":"@okonow","url":"https:\/\/fotos.railway-stations.org\/fotos\/de\/1305.jpg"}, {"title":"Dortmund-H\u00f6rde","lat":"51.4877555613627","lon":"7.50017437027463","license":"CC0 1.0 Universell (CC0 1.0)","name":"@okonow","url":"https:\/\/fotos.railway-stations.org\/fotos\/de\/1306.jpg"}, {"title":"Dortmund-Huckarde","lat":"51.5325011479766","lon":"7.40252754905006","license":"CC0 1.0 Universell (CC0 1.0)","name":"@okonow","url":"https:\/\/fotos.railway-stations.org\/fotos\/de\/1307.jpg"}, {"title":"Dortmund-Huckarde Nord","lat":"51.5336639360845","lon":"7.41505559857369","license":"CC0 1.0 Universell (CC0 1.0)","name":"@okonow","url":"https:\/\/fotos.railway-stations.org\/fotos\/de\/1308.jpg"}, {"title":"Dortmund-Kirchderne","lat":"51.5471390246725","lon":"7.5104159116745","license":"CC0 1.0 Universell (CC0 1.0)","name":"@okonow","url":"https:\/\/fotos.railway-stations.org\/fotos\/de\/1309.jpg"}, {"title":"Dortmund-Kirchh\u00f6rde","lat":"51.4640843326571","lon":"7.45755761861801","license":"CC0 1.0 Universell (CC0 1.0)","name":"@okonow","url":"https:\/\/fotos.railway-stations.org\/fotos\/de\/1310.jpg"}, {"title":"Dortmund-Kley","lat":"51.4895031793065","lon":"7.36517660576722","license":"CC0 1.0 Universell (CC0 1.0)","name":"@okonow","url":"https:\/\/fotos.railway-stations.org\/fotos\/de\/1311.jpg"}, {"title":"Dortmund-K\u00f6rne","lat":"51.5134432299446","lon":"7.51546382904053","license":"CC0 1.0 Universell (CC0 1.0)","name":"@okonow","url":"https:\/\/fotos.railway-stations.org\/fotos\/de\/1312.jpg"}, {"title":"Dortmund-K\u00f6rne West","lat":"51.5099510840696","lon":"7.50237464904785","license":"CC0 1.0 Universell (CC0 1.0)","name":"@okonow","url":"https:\/\/fotos.railway-stations.org\/fotos\/de\/1313.jpg"}, {"title":"Dortmund-Kruckel","lat":"51.4583657101733","lon":"7.41562485694885","license":"CC0 1.0 Universell (CC0 1.0)","name":"@okonow","url":"https:\/\/fotos.railway-stations.org\/fotos\/de\/1314.jpg"}, {"title":"Dortmund-Kurl","lat":"51.5570535697241","lon":"7.58527994155883","license":"CC0 1.0 Universell (CC0 1.0)","name":"@okonow","url":"https:\/\/fotos.railway-stations.org\/fotos\/de\/1315_1.jpg"}, {"title":"Dortmund-L\u00f6ttringhausen","lat":"51.4515911176566","lon":"7.4472427368164","license":"CC0 1.0 Universell (CC0 1.0)","name":"@okonow","url":"https:\/\/fotos.railway-stations.org\/fotos\/de\/1316.jpg"}, {"title":"Dortmund-L\u00fctgendortmund Nord","lat":"51.5086155846784","lon":"7.34200716018677","license":"CC0 1.0 Universell (CC0 1.0)","name":"@okonow","url":"https:\/\/fotos.railway-stations.org\/fotos\/de\/1317.jpg"}, {"title":"Dortmund-Marten","lat":"51.5144692333965","lon":"7.37436532974244","license":"CC0 1.0 Universell (CC0 1.0)","name":"@okonow","url":"https:\/\/fotos.railway-stations.org\/fotos\/de\/1318.jpg"}, {"title":"Dortmund-Marten S\u00fcd","lat":"51.5079542571979","lon":"7.38760581465613","license":"CC0 1.0 Universell (CC0 1.0)","name":"@okonow","url":"https:\/\/fotos.railway-stations.org\/fotos\/de\/1319_0.jpg"}, {"title":"Dortmund-Mengede","lat":"51.5702766834829","lon":"7.37457216763106","license":"CC0 1.0 Universell (CC0 1.0)","name":"@okonow","url":"https:\/\/fotos.railway-stations.org\/fotos\/de\/1320.jpg"}, {"title":"Dortmund-Nette\/Oestrich","lat":"51.561527027142","lon":"7.37768411636353","license":"CC0 1.0 Universell (CC0 1.0)","name":"@okonow","url":"https:\/\/fotos.railway-stations.org\/fotos\/de\/1321.jpg"}, {"title":"Dortmund-Oespel","lat":"51.4883907676649","lon":"7.38375301499969","license":"CC0 1.0 Universell (CC0 1.0)","name":"@okonow","url":"https:\/\/fotos.railway-stations.org\/fotos\/de\/1322.jpg"}, {"title":"Dortmund-Rahm","lat":"51.5257306525619","lon":"7.39525467638045","license":"CC0 1.0 Universell (CC0 1.0)","name":"@okonow","url":"https:\/\/fotos.railway-stations.org\/fotos\/de\/1323.jpg"}, {"title":"Dortmund-Scharnhorst","lat":"51.5385147156976","lon":"7.53694295883179","license":"CC0 1.0 Universell (CC0 1.0)","name":"@okonow","url":"https:\/\/fotos.railway-stations.org\/fotos\/de\/1324.jpg"}, {"title":"Dortmund-S\u00f6lde","lat":"51.4954450578311","lon":"7.58919502547044","license":"CC0 1.0 Universell (CC0 1.0)","name":"@okonow","url":"https:\/\/fotos.railway-stations.org\/fotos\/de\/1325.jpg"}, {"title":"Dortmund-Westerfilde","lat":"51.5483277277332","lon":"7.38009452819824","license":"CC0 1.0 Universell (CC0 1.0)","name":"@okonow","url":"https:\/\/fotos.railway-stations.org\/fotos\/de\/1326.jpg"}, {"title":"Dortmund-Wickede","lat":"51.5340467811146","lon":"7.62497305870056","license":"CC0 1.0 Universell (CC0 1.0)","name":"@okonow","url":"https:\/\/fotos.railway-stations.org\/fotos\/de\/1327.jpg"}, {"title":"Dortmund-Wickede West","lat":"51.5293748345663","lon":"7.60635673999786","license":"CC0 1.0 Universell (CC0 1.0)","name":"@okonow","url":"https:\/\/fotos.railway-stations.org\/fotos\/de\/1328.jpg"}, {"title":"Dortmund-Wischlingen","lat":"51.5191085521372","lon":"7.41291905383883","license":"CC0 1.0 Universell (CC0 1.0)","name":"@okonow","url":"https:\/\/fotos.railway-stations.org\/fotos\/de\/1329.jpg"}, {"title":"Alzey","lat":"49.750148749073","lon":"8.11005592346191","license":"CC BY-SA 4.0","name":"@ZottelderZub","url":"https:\/\/fotos.railway-stations.org\/fotos\/de\/133_1.jpg"}, {"title":"Dorum (Kr Cuxhaven)","lat":"53.6890620763342","lon":"8.57593059539796","license":"CC0 1.0 Universell (CC0 1.0)","name":"zwitscher_ralph","url":"https:\/\/fotos.railway-stations.org\/fotos\/de\/1330.jpg"}, {"title":"Dossow (Prign)","lat":"53.119439459128","lon":"12.5234377384186","license":"CC0 1.0 Universell (CC0 1.0)","name":"@IngoCRunge","url":"https:\/\/fotos.railway-stations.org\/fotos\/de\/1331.jpg"}, {"title":"Drahnsdorf","lat":"51.9156947858","lon":"13.5814810752868","license":"CC0 1.0 Universell (CC0 1.0)","name":"AndreasFranz","url":"https:\/\/fotos.railway-stations.org\/fotos\/de\/1333.jpg"}, {"title":"Drebkau","lat":"51.6551534892002","lon":"14.223273468093","license":"CC0 1.0 Universell (CC0 1.0)","name":"@tomcat_icke","url":"https:\/\/fotos.railway-stations.org\/fotos\/de\/1337_1.jpg"}, {"title":"Dreieich-Dreieichenhain","lat":"49.9981203240332","lon":"8.70940804481507","license":"CC0 1.0 Universell (CC0 1.0)","name":"Thorsten S.","url":"https:\/\/fotos.railway-stations.org\/fotos\/de\/1338_1.jpg"}, {"title":"Dreileben-Drackenstedt","lat":"52.1438546764836","lon":"11.3424424024728","license":"CC0 1.0 Universell (CC0 1.0)","name":"@dornenherz","url":"https:\/\/fotos.railway-stations.org\/fotos\/de\/1339.jpg"}, {"title":"Amberg","lat":"49.4475238756076","lon":"11.8628416394797","license":"CC0 1.0 Universell (CC0 1.0)","name":"@Pelzvieh","url":"https:\/\/fotos.railway-stations.org\/fotos\/de\/134.jpg"}, {"title":"Dresden Hbf","lat":"51.0402249310907","lon":"13.7320464216502","license":"CC0 1.0 Universell (CC0 1.0)","name":"@khgdrn","url":"https:\/\/fotos.railway-stations.org\/fotos\/de\/1343_1.jpg"}, {"title":"Dresden Industriegel\u00e4nde","lat":"51.0872586941869","lon":"13.762629032135","license":"CC0 1.0 Universell (CC0 1.0)","name":"Thorsten S.","url":"https:\/\/fotos.railway-stations.org\/fotos\/de\/1344_1.jpg"}, {"title":"Dresden Mitte","lat":"51.056050310689","lon":"13.7241464853287","license":"CC BY-SA 4.0","name":"@tmmd","url":"https:\/\/fotos.railway-stations.org\/fotos\/de\/1345_1.jpg"}, {"title":"Dresden-Cotta","lat":"51.0620963754122","lon":"13.6833113187649","license":"CC0 1.0 Universell (CC0 1.0)","name":"@tomcat_icke","url":"https:\/\/fotos.railway-stations.org\/fotos\/de\/1346.jpg"}, {"title":"Dresden-Dobritz","lat":"51.011647628466","lon":"13.8085458860841","license":"CC0 1.0 Universell (CC0 1.0)","name":"Thorsten S.","url":"https:\/\/fotos.railway-stations.org\/fotos\/de\/1347_1.jpg"}, {"title":"Dresden-Friedrichstadt","lat":"51.056086236456","lon":"13.7079136834858","license":"CC0 1.0 Universell (CC0 1.0)","name":"@tomcat_icke","url":"https:\/\/fotos.railway-stations.org\/fotos\/de\/1348.jpg"}, {"title":"M\u00fcnster-Amelsb\u00fcren","lat":"51.8840574174294","lon":"7.59892351986309","license":"CC0 1.0 Universell (CC0 1.0)","name":"BirgitFranik","url":"https:\/\/fotos.railway-stations.org\/fotos\/de\/135.jpg"}, {"title":"Dresden-Klotzsche","lat":"51.1145334571394","lon":"13.7889914346647","license":"CC BY-SA 4.0","name":"@tmmd","url":"https:\/\/fotos.railway-stations.org\/fotos\/de\/1351.jpg"}, {"title":"Dresden-Neustadt","lat":"51.0658686812222","lon":"13.740531206131","license":"CC0 1.0 Universell (CC0 1.0)","name":"@RecumbentTravel","url":"https:\/\/fotos.railway-stations.org\/fotos\/de\/1352_1.jpg"}, {"title":"Dresden-Niedersedlitz Hp","lat":"50.9998099669008","lon":"13.8282591207274","license":"CC0 1.0 Universell (CC0 1.0)","name":"Thorsten S.","url":"https:\/\/fotos.railway-stations.org\/fotos\/de\/1353_1.jpg"}, {"title":"Dresden-Pieschen","lat":"51.0809616350641","lon":"13.7267303466797","license":"CC0 1.0 Universell (CC0 1.0)","name":"@tomcat_icke","url":"https:\/\/fotos.railway-stations.org\/fotos\/de\/1354.jpg"}, {"title":"Dresden-Plauen","lat":"51.0295348632303","lon":"13.7031018733978","license":"CC0 1.0 Universell (CC0 1.0)","name":"Thorsten S.","url":"https:\/\/fotos.railway-stations.org\/fotos\/de\/1355_1.jpg"}, {"title":"Dresden-Reick","lat":"51.0211346640008","lon":"13.7908202025433","license":"CC0 1.0 Universell (CC0 1.0)","name":"Thorsten S.","url":"https:\/\/fotos.railway-stations.org\/fotos\/de\/1356_1.jpg"}, {"title":"Dresden-Strehlen","lat":"51.0305221087227","lon":"13.7624119805696","license":"CC0 1.0 Universell (CC0 1.0)","name":"Thorsten S.","url":"https:\/\/fotos.railway-stations.org\/fotos\/de\/1358_1.jpg"}, {"title":"Dresden-Trachau","lat":"51.0891197906659","lon":"13.7065815925598","license":"CC0 1.0 Universell (CC0 1.0)","name":"@tomcat_icke","url":"https:\/\/fotos.railway-stations.org\/fotos\/de\/1359.jpg"}, {"title":"Dresden-Zschachwitz","lat":"50.989884187985","lon":"13.8446674070524","license":"CC0 1.0 Universell (CC0 1.0)","name":"Thorsten S.","url":"https:\/\/fotos.railway-stations.org\/fotos\/de\/1360_1.jpg"}, {"title":"Dreye","lat":"53.0185858920861","lon":"8.87134194374085","license":"CC0 1.0 Universell (CC0 1.0)","name":"grethehb","url":"https:\/\/fotos.railway-stations.org\/fotos\/de\/1362.jpg"}, {"title":"Drohndorf-Mehringen","lat":"51.721640522291","lon":"11.5158891677857","license":"CC BY-SA 4.0","name":"@tmmd","url":"https:\/\/fotos.railway-stations.org\/fotos\/de\/1364.jpg"}, {"title":"Ducherow","lat":"53.7622747471364","lon":"13.7983900308609","license":"CC0 1.0 Universell (CC0 1.0)","name":"@tomcat_icke","url":"https:\/\/fotos.railway-stations.org\/fotos\/de\/1370_1.jpg"}, {"title":"Duckterath","lat":"50.9847920357273","lon":"7.10355162620544","license":"CC BY-SA 4.0","name":"@Bibobach","url":"https:\/\/fotos.railway-stations.org\/fotos\/de\/1371_1.jpg"}, {"title":"Rodgau-Dudenhofen","lat":"50.0112508683723","lon":"8.88422906398772","license":"CC0 1.0 Universell (CC0 1.0)","name":"@stefanopitz","url":"https:\/\/fotos.railway-stations.org\/fotos\/de\/1372_1.jpg"}, {"title":"Duisburg Hbf","lat":"51.4295700715262","lon":"6.77605869635096","license":"CC0 1.0 Universell (CC0 1.0)","name":"@Dgerkrath","url":"https:\/\/fotos.railway-stations.org\/fotos\/de\/1374.jpg"}, {"title":"Duisburg Schlenk","lat":"51.4022717940237","lon":"6.77314689799923","license":"CC0 1.0 Universell (CC0 1.0)","name":"@Dgerkrath","url":"https:\/\/fotos.railway-stations.org\/fotos\/de\/1375_1.jpg"}, {"title":"Duisburg-Bissingheim","lat":"51.3921645699896","lon":"6.80801387071369","license":"CC0 1.0 Universell (CC0 1.0)","name":"@Dgerkrath","url":"https:\/\/fotos.railway-stations.org\/fotos\/de\/1376_1.jpg"}, {"title":"Duisburg-Buchholz","lat":"51.3830544490552","lon":"6.77541643381119","license":"CC0 1.0 Universell (CC0 1.0)","name":"@Dgerkrath","url":"https:\/\/fotos.railway-stations.org\/fotos\/de\/1377_1.jpg"}, {"title":"Duisburg-Gro\u00dfenbaum","lat":"51.3648210086373","lon":"6.77747011184692","license":"CC0 1.0 Universell (CC0 1.0)","name":"@Dgerkrath","url":"https:\/\/fotos.railway-stations.org\/fotos\/de\/1379_1.jpg"}, {"title":"Amorbach","lat":"49.6458527658903","lon":"9.22264915825508","license":"CC0 1.0 Universell (CC0 1.0)","name":"OliverKurzend\u00f6rfer","url":"https:\/\/fotos.railway-stations.org\/fotos\/de\/138_7.jpg"}, {"title":"Duisburg-Hochfeld S\u00fcd","lat":"51.4089616769821","lon":"6.75345540046692","license":"CC0 1.0 Universell (CC0 1.0)","name":"@Dgerkrath","url":"https:\/\/fotos.railway-stations.org\/fotos\/de\/1380_1.jpg"}, {"title":"Duisburg-Meiderich Ost","lat":"51.4687904171527","lon":"6.80102362398088","license":"CC0 1.0 Universell (CC0 1.0)","name":"@Dgerkrath","url":"https:\/\/fotos.railway-stations.org\/fotos\/de\/1381.jpg"}, {"title":"Duisburg-Meiderich S\u00fcd","lat":"51.4687952796776","lon":"6.78002178668976","license":"CC0 1.0 Universell (CC0 1.0)","name":"@Dgerkrath","url":"https:\/\/fotos.railway-stations.org\/fotos\/de\/1382_1.jpg"}, {"title":"Duisburg-Obermeiderich","lat":"51.4687751164365","lon":"6.82109497852259","license":"CC0 1.0 Universell (CC0 1.0)","name":"@Dgerkrath","url":"https:\/\/fotos.railway-stations.org\/fotos\/de\/1383_37.jpg"}, {"title":"Duisburg-Rahm","lat":"51.3469490342161","lon":"6.77978592577347","license":"CC0 1.0 Universell (CC0 1.0)","name":"@Dgerkrath","url":"https:\/\/fotos.railway-stations.org\/fotos\/de\/1384_1.jpg"}, {"title":"Duisburg-Ruhrort","lat":"51.4572991885828","lon":"6.73583103598048","license":"CC0 1.0 Universell (CC0 1.0)","name":"@Dgerkrath","url":"https:\/\/fotos.railway-stations.org\/fotos\/de\/1386_1.jpg"}, {"title":"Duisburg-Wedau","lat":"51.3991085959875","lon":"6.80363237857819","license":"CC0 1.0 Universell (CC0 1.0)","name":"@Dgerkrath","url":"https:\/\/fotos.railway-stations.org\/fotos\/de\/1387_1.jpg"}, {"title":"Duisburg-Entenfang","lat":"51.3769863716115","lon":"6.81341886520386","license":"CC0 1.0 Universell (CC0 1.0)","name":"@Dgerkrath","url":"https:\/\/fotos.railway-stations.org\/fotos\/de\/1388.jpg"}, {"title":"Viersen-D\u00fclken","lat":"51.2569809475148","lon":"6.33799805360683","license":"CC0 1.0 Universell (CC0 1.0)","name":"Volker Goebels","url":"https:\/\/fotos.railway-stations.org\/fotos\/de\/1389.jpg"}, {"title":"Ampfing","lat":"48.2539590035927","lon":"12.4113535881042","license":"CC0 1.0 Universell (CC0 1.0)","name":"zwetschgenmann","url":"https:\/\/fotos.railway-stations.org\/fotos\/de\/139_0.jpg"}, {"title":"D\u00fclmen","lat":"51.8270522056385","lon":"7.29457855224609","license":"CC0 1.0 Universell (CC0 1.0)","name":"@RecumbentTravel","url":"https:\/\/fotos.railway-stations.org\/fotos\/de\/1390_1.jpg"}, {"title":"Durach","lat":"47.6963993328812","lon":"10.3438568115234","license":"CC0 1.0 Universell (CC0 1.0)","name":"Hans Schlegel","url":"https:\/\/fotos.railway-stations.org\/fotos\/de\/1391.jpg"}, {"title":"D\u00fcren","lat":"50.8095901755614","lon":"6.48267388343811","license":"CC0 1.0 Universell (CC0 1.0)","name":"Rudolf Starosta","url":"https:\/\/fotos.railway-stations.org\/fotos\/de\/1392_1.jpg"}, {"title":"Durmersheim","lat":"48.9286098012845","lon":"8.27236175537109","license":"CC0 1.0 Universell (CC0 1.0)","name":"AndreasFranz","url":"https:\/\/fotos.railway-stations.org\/fotos\/de\/1393.jpg"}, {"title":"D\u00fcrrnhaar","lat":"47.9938855138932","lon":"11.7366098608807","license":"CC0 1.0 Universell (CC0 1.0)","name":"zwetschgenmann","url":"https:\/\/fotos.railway-stations.org\/fotos\/de\/1396.jpg"}, {"title":"D\u00fcsseldorf-Benrath","lat":"51.1622345233819","lon":"6.87888754964661","license":"CC0 1.0 Universell (CC0 1.0)","name":"@Dgerkrath","url":"https:\/\/fotos.railway-stations.org\/fotos\/de\/1399_1.jpg"}, {"title":"Adelsheim Nord","lat":"49.4214577189747","lon":"9.39268805337895","license":"CC0 1.0 Universell (CC0 1.0)","name":"Gaby Becker","url":"https:\/\/fotos.railway-stations.org\/fotos\/de\/14_0.jpg"}, {"title":"D\u00fcsseldorf Flughafen","lat":"51.291767647244","lon":"6.78680419921875","license":"CC0 1.0 Universell (CC0 1.0)","name":"@Dgerkrath","url":"https:\/\/fotos.railway-stations.org\/fotos\/de\/1400_1.jpg"}, {"title":"D\u00fcsseldorf Hbf","lat":"51.2196529016763","lon":"6.79432511329651","license":"CC0 1.0 Universell (CC0 1.0)","name":"Nimue47","url":"https:\/\/fotos.railway-stations.org\/fotos\/de\/1401_1.jpg"}, {"title":"D\u00fcsseldorf Volksgarten","lat":"51.2101231523583","lon":"6.79182529449463","license":"CC0 1.0 Universell (CC0 1.0)","name":"@Dgerkrath","url":"https:\/\/fotos.railway-stations.org\/fotos\/de\/1402_1.jpg"}, {"title":"D\u00fcsseldorf Wehrhahn","lat":"51.2284346528121","lon":"6.79815302292505","license":"CC0 1.0 Universell (CC0 1.0)","name":"@Dgerkrath","url":"https:\/\/fotos.railway-stations.org\/fotos\/de\/1403_1.jpg"}, {"title":"D\u00fcsseldorf Zoo","lat":"51.2362345317","lon":"6.79684638977051","license":"CC0 1.0 Universell (CC0 1.0)","name":"@Dgerkrath","url":"https:\/\/fotos.railway-stations.org\/fotos\/de\/1404_1.jpg"}, {"title":"D\u00fcsseldorf-Bilk","lat":"51.2079386343789","lon":"6.77594122907664","license":"CC0 1.0 Universell (CC0 1.0)","name":"Gaby Becker","url":"https:\/\/fotos.railway-stations.org\/fotos\/de\/1405_1.jpg"}, {"title":"D\u00fcsseldorf-Derendorf","lat":"51.247802395027","lon":"6.79454806603882","license":"CC0 1.0 Universell (CC0 1.0)","name":"@Dgerkrath","url":"https:\/\/fotos.railway-stations.org\/fotos\/de\/1406_1.jpg"}, {"title":"D\u00fcsseldorf-Eller","lat":"51.2028232940187","lon":"6.85168147087097","license":"CC0 1.0 Universell (CC0 1.0)","name":"@Dgerkrath","url":"https:\/\/fotos.railway-stations.org\/fotos\/de\/1407_1.jpg"}, {"title":"D\u00fcsseldorf-Eller Mitte","lat":"51.2020838331535","lon":"6.83870315551757","license":"CC0 1.0 Universell (CC0 1.0)","name":"@Dgerkrath","url":"https:\/\/fotos.railway-stations.org\/fotos\/de\/1408_1.jpg"}, {"title":"D\u00fcsseldorf-Eller S\u00fcd","lat":"51.1979639225233","lon":"6.83634459972379","license":"CC0 1.0 Universell (CC0 1.0)","name":"@Dgerkrath","url":"https:\/\/fotos.railway-stations.org\/fotos\/de\/1409_1.jpg"}, {"title":"Amstetten (W\u00fcrtt)","lat":"48.5781952489867","lon":"9.87278363233961","license":"CC0 1.0 Universell (CC0 1.0)","name":"@tomcat_icke","url":"https:\/\/fotos.railway-stations.org\/fotos\/de\/141.jpg"}, {"title":"D\u00fcsseldorf-Flingern","lat":"51.2262481596744","lon":"6.80980315531726","license":"CC0 1.0 Universell (CC0 1.0)","name":"@Dgerkrath","url":"https:\/\/fotos.railway-stations.org\/fotos\/de\/1410_1.jpg"}, {"title":"D\u00fcsseldorf-Friedrichstadt","lat":"51.2121350032203","lon":"6.78912878036499","license":"CC0 1.0 Universell (CC0 1.0)","name":"Gaby Becker","url":"https:\/\/fotos.railway-stations.org\/fotos\/de\/1411_1.jpg"}, {"title":"D\u00fcsseldorf-Garath","lat":"51.1435862781674","lon":"6.89770817756652","license":"CC0 1.0 Universell (CC0 1.0)","name":"@Dgerkrath","url":"https:\/\/fotos.railway-stations.org\/fotos\/de\/1412_1.jpg"}, {"title":"D\u00fcsseldorf-Gerresheim","lat":"51.2202411204589","lon":"6.86394597001038","license":"CC0 1.0 Universell (CC0 1.0)","name":"@Dgerkrath","url":"https:\/\/fotos.railway-stations.org\/fotos\/de\/1413_1.jpg"}, {"title":"D\u00fcsseldorf-Hamm","lat":"51.2107146830226","lon":"6.74039626707797","license":"CC0 1.0 Universell (CC0 1.0)","name":"Gaby Becker","url":"https:\/\/fotos.railway-stations.org\/fotos\/de\/1414_1.jpg"}, {"title":"D\u00fcsseldorf-Hellerhof","lat":"51.1330399045625","lon":"6.90818130970002","license":"CC0 1.0 Universell (CC0 1.0)","name":"@Dgerkrath","url":"https:\/\/fotos.railway-stations.org\/fotos\/de\/1415_1.jpg"}, {"title":"D\u00fcsseldorf-Oberbilk","lat":"51.2080123075005","lon":"6.80881342198563","license":"CC0 1.0 Universell (CC0 1.0)","name":"@Dgerkrath","url":"https:\/\/fotos.railway-stations.org\/fotos\/de\/1416_1.jpg"}, {"title":"D\u00fcsseldorf-Rath","lat":"51.2649051006478","lon":"6.82152664652676","license":"CC0 1.0 Universell (CC0 1.0)","name":"@Dgerkrath","url":"https:\/\/fotos.railway-stations.org\/fotos\/de\/1417_1.jpg"}, {"title":"D\u00fcsseldorf-Rath Mitte","lat":"51.261090950594","lon":"6.80853223085403","license":"CC0 1.0 Universell (CC0 1.0)","name":"@Dgerkrath","url":"https:\/\/fotos.railway-stations.org\/fotos\/de\/1418_1.jpg"}, {"title":"D\u00fcsseldorf-Reisholz","lat":"51.1806813828541","lon":"6.86117112636566","license":"CC0 1.0 Universell (CC0 1.0)","name":"@Dgerkrath","url":"https:\/\/fotos.railway-stations.org\/fotos\/de\/1419_1.jpg"}, {"title":"D\u00fcsseldorf-Unterrath","lat":"51.2765050178744","lon":"6.78883266448975","license":"CC0 1.0 Universell (CC0 1.0)","name":"@Dgerkrath","url":"https:\/\/fotos.railway-stations.org\/fotos\/de\/1420_1.jpg"}, {"title":"D\u00fcsseldorf V\u00f6lklinger Stra\u00dfe","lat":"51.2101586801287","lon":"6.76036125836533","license":"CC0 1.0 Universell (CC0 1.0)","name":"Gaby Becker","url":"https:\/\/fotos.railway-stations.org\/fotos\/de\/1421_1.jpg"}, {"title":"Dutenhofen (Kr Wetzlar)","lat":"50.564348107861","lon":"8.59839475009495","license":"CC0 1.0 Universell (CC0 1.0)","name":"@koenichfred","url":"https:\/\/fotos.railway-stations.org\/fotos\/de\/1424.jpg"}, {"title":"Ebelsbach-Eltmann","lat":"49.9824198762795","lon":"10.6702136993408","license":"CC0 1.0 Universell (CC0 1.0)","name":"Frankenbiker","url":"https:\/\/fotos.railway-stations.org\/fotos\/de\/1427_0.jpg"}, {"title":"Ebenhausen (Unterfr)","lat":"50.1310973045477","lon":"10.1380062103272","license":"CC0 1.0 Universell (CC0 1.0)","name":"zwetschgenmann","url":"https:\/\/fotos.railway-stations.org\/fotos\/de\/1428.jpg"}, {"title":"Ebenhausen-Sch\u00e4ftlarn","lat":"47.9786771409256","lon":"11.4536654949188","license":"CC0 1.0 Universell (CC0 1.0)","name":"@khgdrn","url":"https:\/\/fotos.railway-stations.org\/fotos\/de\/1429.jpg"}, {"title":"Ebensfeld","lat":"50.068835747059","lon":"10.9547317028046","license":"CC0 1.0 Universell (CC0 1.0)","name":"Frankenbiker","url":"https:\/\/fotos.railway-stations.org\/fotos\/de\/1431.jpg"}, {"title":"Eberbach","lat":"49.4658417285479","lon":"8.98417353630066","license":"CC0 1.0 Universell (CC0 1.0)","name":"@khgdrn","url":"https:\/\/fotos.railway-stations.org\/fotos\/de\/1432_1.jpg"}, {"title":"Ebermannstadt","lat":"49.7767008054683","lon":"11.1867696046829","license":"CC0 1.0 Universell (CC0 1.0)","name":"Frankenbiker","url":"https:\/\/fotos.railway-stations.org\/fotos\/de\/1433_0.jpg"}, {"title":"Ebermergen","lat":"48.756520429511","lon":"10.710888103563","license":"CC0 1.0 Universell (CC0 1.0)","name":"kasvx","url":"https:\/\/fotos.railway-stations.org\/fotos\/de\/1434.jpg"}, {"title":"Ebern","lat":"50.094148369454","lon":"10.796794295311","license":"CC0 1.0 Universell (CC0 1.0)","name":"Frankenbiker","url":"https:\/\/fotos.railway-stations.org\/fotos\/de\/1435.jpg"}, {"title":"Ebersbach (Fils)","lat":"48.7160094946066","lon":"9.52614806170735","license":"CC0 1.0 Universell (CC0 1.0)","name":"@tomcat_icke","url":"https:\/\/fotos.railway-stations.org\/fotos\/de\/1438.jpg"}, {"title":"Andernach","lat":"50.4344522406502","lon":"7.40505337715149","license":"CC0 1.0 Universell (CC0 1.0)","name":"@khgdrn","url":"https:\/\/fotos.railway-stations.org\/fotos\/de\/144_1.jpg"}, {"title":"Ebersberg (Oberbay)","lat":"48.0749627833596","lon":"11.9704437432233","license":"CC0 1.0 Universell (CC0 1.0)","name":"zwetschgenmann","url":"https:\/\/fotos.railway-stations.org\/fotos\/de\/1440_1.jpg"}, {"title":"Ebersbrunn","lat":"50.6513448099074","lon":"12.4432182312012","license":"CC0 1.0 Universell (CC0 1.0)","name":"@IngoCRunge","url":"https:\/\/fotos.railway-stations.org\/fotos\/de\/1441.jpg"}, {"title":"Ebersdorf (b Coburg)","lat":"50.2239254133422","lon":"11.0649357688472","license":"CC0 1.0 Universell (CC0 1.0)","name":"Frankenbiker","url":"https:\/\/fotos.railway-stations.org\/fotos\/de\/1442.jpg"}, {"title":"Eberswalde Hbf","lat":"52.8340159812814","lon":"13.7971150875092","license":"CC0 1.0 Universell (CC0 1.0)","name":"@tomcat_icke","url":"https:\/\/fotos.railway-stations.org\/fotos\/de\/1444_1.jpg"}, {"title":"Ebertsheim","lat":"49.564029260474","lon":"8.10909688076044","license":"CC0 1.0 Universell (CC0 1.0)","name":"@stefanopitz","url":"https:\/\/fotos.railway-stations.org\/fotos\/de\/1445.jpg"}, {"title":"Ebing","lat":"50.0019155577195","lon":"10.9142186499517","license":"CC0 1.0 Universell (CC0 1.0)","name":"Frankenbiker","url":"https:\/\/fotos.railway-stations.org\/fotos\/de\/1446.jpg"}, {"title":"Ebringen","lat":"47.9601287942288","lon":"7.76793479919434","license":"CC0 1.0 Universell (CC0 1.0)","name":"Gaby Becker","url":"https:\/\/fotos.railway-stations.org\/fotos\/de\/1447.jpg"}, {"title":"Ebstorf (Kr Uelzen)","lat":"53.0170896149883","lon":"10.4162549972534","license":"CC0 1.0 Universell (CC0 1.0)","name":"@Onkel_N","url":"https:\/\/fotos.railway-stations.org\/fotos\/de\/1448.jpg"}, {"title":"Echem","lat":"53.3369796621605","lon":"10.5372047424316","license":"CC0 1.0 Universell (CC0 1.0)","name":"@khgdrn","url":"https:\/\/fotos.railway-stations.org\/fotos\/de\/1449_1.jpg"}, {"title":"Anderten-Misburg","lat":"52.3691375831997","lon":"9.86061761026297","license":"CC0 1.0 Universell (CC0 1.0)","name":"AndreasFranz","url":"https:\/\/fotos.railway-stations.org\/fotos\/de\/145.jpg"}, {"title":"Eching","lat":"48.3030233964447","lon":"11.6167358376763","license":"CC0 1.0 Universell (CC0 1.0)","name":"zwetschgenmann","url":"https:\/\/fotos.railway-stations.org\/fotos\/de\/1450.jpg"}, {"title":"Echterdingen","lat":"48.6921478461228","lon":"9.16930675506592","license":"CC0 1.0 Universell (CC0 1.0)","name":"@khgdrn","url":"https:\/\/fotos.railway-stations.org\/fotos\/de\/1451.jpg"}, {"title":"Echzell","lat":"50.3901618891747","lon":"8.89077186584473","license":"CC0 1.0 Universell (CC0 1.0)","name":"@Dennyo218","url":"https:\/\/fotos.railway-stations.org\/fotos\/de\/1452.jpg"}, {"title":"Eckardtsleben","lat":"51.0659519610105","lon":"10.6823487343007","license":"CC0 1.0 Universell (CC0 1.0)","name":"@khgdrn","url":"https:\/\/fotos.railway-stations.org\/fotos\/de\/1453.jpg"}, {"title":"Eckartsberga (Th\u00fcr)","lat":"51.1078682441876","lon":"11.5546041656249","license":"CC0 1.0 Universell (CC0 1.0)","name":"Guinevere2306","url":"https:\/\/fotos.railway-stations.org\/fotos\/de\/1455.jpg"}, {"title":"Eckartshausen-Ilshofen","lat":"49.1523400997941","lon":"9.93711912777366","license":"CC0 1.0 Universell (CC0 1.0)","name":"AndreasFranz","url":"https:\/\/fotos.railway-stations.org\/fotos\/de\/1456.jpg"}, {"title":"Eckernf\u00f6rde","lat":"54.4678615980143","lon":"9.83489513397216","license":"CC0 1.0 Universell (CC0 1.0)","name":"Horst Sievert","url":"https:\/\/fotos.railway-stations.org\/fotos\/de\/1457_0.jpg"}, {"title":"Eckersm\u00fchlen","lat":"49.2154084277837","lon":"11.1382102244264","license":"CC0 1.0 Universell (CC0 1.0)","name":"zwetschgenmann","url":"https:\/\/fotos.railway-stations.org\/fotos\/de\/1458.jpg"}, {"title":"Eddersheim","lat":"50.0394765717407","lon":"8.45674915747209","license":"CC0 1.0 Universell (CC0 1.0)","name":"Harald B\u00f6ttger","url":"https:\/\/fotos.railway-stations.org\/fotos\/de\/1459_1.jpg"}, {"title":"Leipzig Anger-Crottendorf","lat":"51.3323878072446","lon":"12.420357350725","license":"CC0 1.0 Universell (CC0 1.0)","name":"@IngoCRunge","url":"https:\/\/fotos.railway-stations.org\/fotos\/de\/146.jpg"}, {"title":"Edenkoben","lat":"49.2818266880306","lon":"8.14053549359624","license":"CC0 1.0 Universell (CC0 1.0)","name":"@JoachimWeiss","url":"https:\/\/fotos.railway-stations.org\/fotos\/de\/1461.jpg"}, {"title":"Ediger-Eller","lat":"50.1051156604818","lon":"7.13980229615118","license":"CC0 1.0 Universell (CC0 1.0)","name":"@khgdrn","url":"https:\/\/fotos.railway-stations.org\/fotos\/de\/1463_1.jpg"}, {"title":"Edingen (Kr Wetzlar)","lat":"50.6323166677541","lon":"8.32291960716247","license":"CC0 1.0 Universell (CC0 1.0)","name":"@CaSch81","url":"https:\/\/fotos.railway-stations.org\/fotos\/de\/1464.jpg"}, {"title":"Edling","lat":"48.0584763903639","lon":"12.1631128191894","license":"CC0 1.0 Universell (CC0 1.0)","name":"zwetschgenmann","url":"https:\/\/fotos.railway-stations.org\/fotos\/de\/1466.jpg"}, {"title":"Effolderbach","lat":"50.3384745661011","lon":"9.0075346827507","license":"CC0 1.0 Universell (CC0 1.0)","name":"Gaby Becker","url":"https:\/\/fotos.railway-stations.org\/fotos\/de\/1468.jpg"}, {"title":"Efringen-Kirchen","lat":"47.655706786533","lon":"7.56355941295624","license":"CC0 1.0 Universell (CC0 1.0)","name":"Gaby Becker","url":"https:\/\/fotos.railway-stations.org\/fotos\/de\/1469.jpg"}, {"title":"Angermund","lat":"51.3306494015862","lon":"6.7818878889084","license":"CC0 1.0 Universell (CC0 1.0)","name":"@Dgerkrath","url":"https:\/\/fotos.railway-stations.org\/fotos\/de\/147_1.jpg"}, {"title":"Egelsbach","lat":"49.9690232083495","lon":"8.65356967999386","license":"CC0 1.0 Universell (CC0 1.0)","name":"@stefanopitz","url":"https:\/\/fotos.railway-stations.org\/fotos\/de\/1471_1.jpg"}, {"title":"Egersdorf","lat":"49.4646354393397","lon":"10.8869683742523","license":"CC0 1.0 Universell (CC0 1.0)","name":"KatrinBechhold","url":"https:\/\/fotos.railway-stations.org\/fotos\/de\/1472.jpg"}, {"title":"Eggenfelden","lat":"48.4038539230397","lon":"12.7485278248787","license":"CC0 1.0 Universell (CC0 1.0)","name":"FlorianSchmidt","url":"https:\/\/fotos.railway-stations.org\/fotos\/de\/1474.jpg"}, {"title":"Eggersdorf","lat":"51.9750370951491","lon":"11.6960030794144","license":"CC BY-SA 4.0","name":"@tmmd","url":"https:\/\/fotos.railway-stations.org\/fotos\/de\/1475_1.jpg"}, {"title":"Eggesin","lat":"53.6815142530297","lon":"14.072650372982","license":"CC0 1.0 Universell (CC0 1.0)","name":"@tomcat_icke","url":"https:\/\/fotos.railway-stations.org\/fotos\/de\/1476.jpg"}, {"title":"Egglkofen","lat":"48.3957468214105","lon":"12.4461258924021","license":"CC0 1.0 Universell (CC0 1.0)","name":"AndreasFranz","url":"https:\/\/fotos.railway-stations.org\/fotos\/de\/1477.jpg"}, {"title":"Eggm\u00fchl","lat":"48.8368514438381","lon":"12.1827962994575","license":"CC0 1.0 Universell (CC0 1.0)","name":"FlorianSchmidt","url":"https:\/\/fotos.railway-stations.org\/fotos\/de\/1478.jpg"}, {"title":"Eggolsheim","lat":"49.7755397400948","lon":"11.0360747051239","license":"CC0 1.0 Universell (CC0 1.0)","name":"KatrinBechhold","url":"https:\/\/fotos.railway-stations.org\/fotos\/de\/1479.jpg"}, {"title":"Angerm\u00fcnde","lat":"53.0158944922697","lon":"13.9956504106521","license":"CC0 1.0 Universell (CC0 1.0)","name":"@tomcat_icke","url":"https:\/\/fotos.railway-stations.org\/fotos\/de\/148_1.jpg"}, {"title":"Eglharting","lat":"48.0823757954398","lon":"11.8638064788203","license":"CC0 1.0 Universell (CC0 1.0)","name":"zwetschgenmann","url":"https:\/\/fotos.railway-stations.org\/fotos\/de\/1481.jpg"}, {"title":"Egling","lat":"48.1908225932498","lon":"10.9763646125793","license":"CC0 1.0 Universell (CC0 1.0)","name":"Hans Schlegel","url":"https:\/\/fotos.railway-stations.org\/fotos\/de\/1482.jpg"}, {"title":"Ehlershausen","lat":"52.5238720585851","lon":"10.0297021865844","license":"CC0 1.0 Universell (CC0 1.0)","name":"@N0rwi","url":"https:\/\/fotos.railway-stations.org\/fotos\/de\/1485.jpg"}, {"title":"Ehningen (b B\u00f6blingen)","lat":"48.6623255103197","lon":"8.94351482391357","license":"CC0 1.0 Universell (CC0 1.0)","name":"AndreasFranz","url":"https:\/\/fotos.railway-stations.org\/fotos\/de\/1486.jpg"}, {"title":"Ehr","lat":"50.1756590437169","lon":"7.571382522583","license":"CC0 1.0 Universell (CC0 1.0)","name":"zwitscher_ralph","url":"https:\/\/fotos.railway-stations.org\/fotos\/de\/1487.jpg"}, {"title":"Ehrang","lat":"49.8026141076747","lon":"6.68596541881561","license":"CC0 1.0 Universell (CC0 1.0)","name":"Volker Goebels","url":"https:\/\/fotos.railway-stations.org\/fotos\/de\/1488.jpg"}, {"title":"Angern-Rog\u00e4tz","lat":"52.3385618621364","lon":"11.7597017503799","license":"CC BY-SA 4.0","name":"@tmmd","url":"https:\/\/fotos.railway-stations.org\/fotos\/de\/149_0.jpg"}, {"title":"Ehringshausen (Kr Wetzlar)","lat":"50.5949354448562","lon":"8.38406056165695","license":"CC0 1.0 Universell (CC0 1.0)","name":"@CaSch81","url":"https:\/\/fotos.railway-stations.org\/fotos\/de\/1492.jpg"}, {"title":"Ehringshausen (Oberhess)","lat":"50.708794471522","lon":"9.10181363423664","license":"CC0 1.0 Universell (CC0 1.0)","name":"@CaSch81","url":"https:\/\/fotos.railway-stations.org\/fotos\/de\/1493.jpg"}, {"title":"Eichen (Kr Siegen)","lat":"50.9738705163689","lon":"7.977933883667","license":"CC0 1.0 Universell (CC0 1.0)","name":"@khgdrn","url":"https:\/\/fotos.railway-stations.org\/fotos\/de\/1496.jpg"}, {"title":"Nidderau-Eichen","lat":"50.2559445541921","lon":"8.91749342282613","license":"CC0 1.0 Universell (CC0 1.0)","name":"Gaby Becker","url":"https:\/\/fotos.railway-stations.org\/fotos\/de\/1497_1.jpg"}, {"title":"Eichenau (Oberbay)","lat":"48.1793865249404","lon":"11.3279867246365","license":"CC0 1.0 Universell (CC0 1.0)","name":"Hans Schlegel","url":"https:\/\/fotos.railway-stations.org\/fotos\/de\/1498_0.jpg"}, {"title":"Eichenberg","lat":"51.3748812739777","lon":"9.92161273956299","license":"CC0 1.0 Universell (CC0 1.0)","name":"@FKTVTwipsy","url":"https:\/\/fotos.railway-stations.org\/fotos\/de\/1499.jpg"}, {"title":"Adelsheim Ost","lat":"49.4032451894597","lon":"9.39542055130004","license":"CC0 1.0 Universell (CC0 1.0)","name":"Gaby Becker","url":"https:\/\/fotos.railway-stations.org\/fotos\/de\/15.jpg"}, {"title":"Angersbach","lat":"50.6309985261678","lon":"9.44702707804164","license":"CC0 1.0 Universell (CC0 1.0)","name":"@storchp","url":"https:\/\/fotos.railway-stations.org\/fotos\/de\/150_1.jpg"}, {"title":"Eichenzell","lat":"50.4944517863314","lon":"9.6942526102066","license":"CC0 1.0 Universell (CC0 1.0)","name":"@storchp","url":"https:\/\/fotos.railway-stations.org\/fotos\/de\/1500_1.jpg"}, {"title":"Eichhagen","lat":"51.0585248986294","lon":"7.83694955435667","license":"CC0 1.0 Universell (CC0 1.0)","name":"@khgdrn","url":"https:\/\/fotos.railway-stations.org\/fotos\/de\/1501_1.jpg"}, {"title":"Eicholzheim","lat":"49.4324870062238","lon":"9.29019391536713","license":"CC0 1.0 Universell (CC0 1.0)","name":"@stefanopitz","url":"https:\/\/fotos.railway-stations.org\/fotos\/de\/1502.jpg"}, {"title":"Eichst\u00e4tt Bahnhof","lat":"48.8697520874624","lon":"11.1634817118639","license":"CC0 1.0 Universell (CC0 1.0)","name":"@LiegeradTurust","url":"https:\/\/fotos.railway-stations.org\/fotos\/de\/1504.jpg"}, {"title":"Eichst\u00e4tt Stadt","lat":"48.8930069699332","lon":"11.1797770857811","license":"CC0 1.0 Universell (CC0 1.0)","name":"@LiegeradTurust","url":"https:\/\/fotos.railway-stations.org\/fotos\/de\/1505.jpg"}, {"title":"Eichstedt (Altm)","lat":"52.6753021041471","lon":"11.8549017714589","license":"CC0 1.0 Universell (CC0 1.0)","name":"AndreasFranz","url":"https:\/\/fotos.railway-stations.org\/fotos\/de\/1506.jpg"}, {"title":"Eichwalde","lat":"52.3712294862241","lon":"13.6153715423175","license":"CC0 1.0 Universell (CC0 1.0)","name":"@tomcat_icke","url":"https:\/\/fotos.railway-stations.org\/fotos\/de\/1507_1.jpg"}, {"title":"Eickendorf","lat":"51.9468091813246","lon":"11.6768956614989","license":"CC BY-SA 4.0","name":"@tmmd","url":"https:\/\/fotos.railway-stations.org\/fotos\/de\/1509_1.jpg"}, {"title":"Angersdorf","lat":"51.4603154476712","lon":"11.9030356407166","license":"CC0 1.0 Universell (CC0 1.0)","name":"@Twenty_Sixer","url":"https:\/\/fotos.railway-stations.org\/fotos\/de\/151.jpg"}, {"title":"Eidelstedt","lat":"53.5956739069923","lon":"9.90737144763654","license":"CC0 1.0 Universell (CC0 1.0)","name":"@harald_legner","url":"https:\/\/fotos.railway-stations.org\/fotos\/de\/1511_1.jpg"}, {"title":"Eilenburg","lat":"51.451813982087","lon":"12.6368165016174","license":"CC0 1.0 Universell (CC0 1.0)","name":"Leipzig auf Bildern","url":"https:\/\/fotos.railway-stations.org\/fotos\/de\/1512.jpg"}, {"title":"Eilenburg Ost","lat":"51.4634994684555","lon":"12.6681339740753","license":"CC0 1.0 Universell (CC0 1.0)","name":"Leipzig auf Bildern","url":"https:\/\/fotos.railway-stations.org\/fotos\/de\/1513.jpg"}, {"title":"Ehrang Ort","lat":"49.8088613033657","lon":"6.68795138597488","license":"CC0 1.0 Universell (CC0 1.0)","name":"Volker Goebels","url":"https:\/\/fotos.railway-stations.org\/fotos\/de\/1514.jpg"}, {"title":"Eilendorf","lat":"50.7855469423324","lon":"6.1543712766413","license":"CC0 1.0 Universell (CC0 1.0)","name":"Rudolf Starosta","url":"https:\/\/fotos.railway-stations.org\/fotos\/de\/1515_1.jpg"}, {"title":"Eilsleben (b Magdeburg)","lat":"52.1503396389114","lon":"11.2163686752319","license":"CC BY-SA 4.0","name":"@tmmd","url":"https:\/\/fotos.railway-stations.org\/fotos\/de\/1517.jpg"}, {"title":"Eimeldingen","lat":"47.6279871658406","lon":"7.59562432765961","license":"CC0 1.0 Universell (CC0 1.0)","name":"Gaby Becker","url":"https:\/\/fotos.railway-stations.org\/fotos\/de\/1519.jpg"}, {"title":"Anklam","lat":"53.8560957626532","lon":"13.7017965316772","license":"CC0 1.0 Universell (CC0 1.0)","name":"@tomcat_icke","url":"https:\/\/fotos.railway-stations.org\/fotos\/de\/152_1.jpg"}, {"title":"Einbeck-Salzderhelden","lat":"51.7981911586414","lon":"9.92278307676315","license":"CC0 1.0 Universell (CC0 1.0)","name":"@MatthiasWelt","url":"https:\/\/fotos.railway-stations.org\/fotos\/de\/1520_1.jpg"}, {"title":"Einfeld","lat":"54.1299270366458","lon":"9.9984752306019","license":"CC0 1.0 Universell (CC0 1.0)","name":"@harald_legner","url":"https:\/\/fotos.railway-stations.org\/fotos\/de\/1521_0.jpg"}, {"title":"Ein\u00f6d (Saar)","lat":"49.2671016563594","lon":"7.32102904770825","license":"CC0 1.0 Universell (CC0 1.0)","name":"@irgendlink","url":"https:\/\/fotos.railway-stations.org\/fotos\/de\/1522.jpg"}, {"title":"Einsiedel","lat":"50.7729086156646","lon":"12.9729110520819","license":"CC0 1.0 Universell (CC0 1.0)","name":"@IngoCRunge","url":"https:\/\/fotos.railway-stations.org\/fotos\/de\/1524.jpg"}, {"title":"Einsiedlerhof","lat":"49.4309214427736","lon":"7.66200377390935","license":"CC0 1.0 Universell (CC0 1.0)","name":"@khgdrn","url":"https:\/\/fotos.railway-stations.org\/fotos\/de\/1525.jpg"}, {"title":"Eisenach","lat":"50.9768708944312","lon":"10.3319323104381","license":"CC0 1.0 Universell (CC0 1.0)","name":"@LarsiW","url":"https:\/\/fotos.railway-stations.org\/fotos\/de\/1528_1.jpg"}, {"title":"Eisenach Opelwerk","lat":"50.9793192132125","lon":"10.2835133671761","license":"CC0 1.0 Universell (CC0 1.0)","name":"@RecumbentTravel","url":"https:\/\/fotos.railway-stations.org\/fotos\/de\/1529_1.jpg"}, {"title":"Eisenach West","lat":"50.9788904156317","lon":"10.3050896072364","license":"CC0 1.0 Universell (CC0 1.0)","name":"@tomcat_icke","url":"https:\/\/fotos.railway-stations.org\/fotos\/de\/1530_1.jpg"}, {"title":"Eisenberg (Pfalz)","lat":"49.5542141728735","lon":"8.06998014450073","license":"CC0 1.0 Universell (CC0 1.0)","name":"@stefanopitz","url":"https:\/\/fotos.railway-stations.org\/fotos\/de\/1533_0.jpg"}, {"title":"Eisenh\u00fcttenstadt","lat":"52.1478955448221","lon":"14.6584862839638","license":"CC0 1.0 Universell (CC0 1.0)","name":"@tomcat_icke","url":"https:\/\/fotos.railway-stations.org\/fotos\/de\/1536_1.jpg"}, {"title":"Eiserfeld (Sieg)","lat":"50.8472117571843","lon":"7.98711615859792","license":"CC0 1.0 Universell (CC0 1.0)","name":"Volker Goebels","url":"https:\/\/fotos.railway-stations.org\/fotos\/de\/1537.jpg"}, {"title":"Eislingen (Fils)","lat":"48.6967422468362","lon":"9.70384854585567","license":"CC0 1.0 Universell (CC0 1.0)","name":"@tomcat_icke","url":"https:\/\/fotos.railway-stations.org\/fotos\/de\/1539.jpg"}, {"title":"Eitensheim","lat":"48.8158663123449","lon":"11.3195037841797","license":"CC0 1.0 Universell (CC0 1.0)","name":"@LiegeradTurust","url":"https:\/\/fotos.railway-stations.org\/fotos\/de\/1540.jpg"}, {"title":"Eitorf","lat":"50.7735433612807","lon":"7.44780858357745","license":"CC0 1.0 Universell (CC0 1.0)","name":"Volker Goebels","url":"https:\/\/fotos.railway-stations.org\/fotos\/de\/1541.jpg"}, {"title":"Elbgaustra\u00dfe","lat":"53.6027493949755","lon":"9.89331722259521","license":"CC0 1.0 Universell (CC0 1.0)","name":"@harald_legner","url":"https:\/\/fotos.railway-stations.org\/fotos\/de\/1542_1.jpg"}, {"title":"Elfershausen-Trimberg","lat":"50.1404521364625","lon":"9.96913433074951","license":"CC0 1.0 Universell (CC0 1.0)","name":"@storchp","url":"https:\/\/fotos.railway-stations.org\/fotos\/de\/1546.jpg"}, {"title":"Elgersburg","lat":"50.7058943315281","lon":"10.8500301172285","license":"CC0 1.0 Universell (CC0 1.0)","name":"0700pq0jk0rs","url":"https:\/\/fotos.railway-stations.org\/fotos\/de\/1547.jpg"}, {"title":"Ellhofen","lat":"49.1499574715355","lon":"9.31606650352479","license":"CC0 1.0 Universell (CC0 1.0)","name":"zwetschgenmann","url":"https:\/\/fotos.railway-stations.org\/fotos\/de\/1550.jpg"}, {"title":"Ellingen (Bay)","lat":"49.0658972845455","lon":"10.9594004470046","license":"CC0 1.0 Universell (CC0 1.0)","name":"@LiegeradTurust","url":"https:\/\/fotos.railway-stations.org\/fotos\/de\/1551.jpg"}, {"title":"Ellrich","lat":"51.5797101573323","lon":"10.6694565324934","license":"CC0 1.0 Universell (CC0 1.0)","name":"kasvx","url":"https:\/\/fotos.railway-stations.org\/fotos\/de\/1553.jpg"}, {"title":"Ellwangen","lat":"48.964100978193","lon":"10.1296412944794","license":"CC BY-SA 4.0","name":"4spring","url":"https:\/\/fotos.railway-stations.org\/fotos\/de\/1554_1.jpg"}, {"title":"Ellzee","lat":"48.3418238068368","lon":"10.3385177525607","license":"CC0 1.0 Universell (CC0 1.0)","name":"Hans Schlegel","url":"https:\/\/fotos.railway-stations.org\/fotos\/de\/1555.jpg"}, {"title":"Elmenhorst","lat":"54.2126982382171","lon":"13.0757474899292","license":"CC0 1.0 Universell (CC0 1.0)","name":"@RecumbentTravel","url":"https:\/\/fotos.railway-stations.org\/fotos\/de\/1557.jpg"}, {"title":"Elmshorn","lat":"53.7540211346925","lon":"9.65936869382859","license":"CC0 1.0 Universell (CC0 1.0)","name":"@N1tr0glyc3r1n","url":"https:\/\/fotos.railway-stations.org\/fotos\/de\/1558_1.jpg"}, {"title":"Elpersheim","lat":"49.4731136983761","lon":"9.87352073192596","license":"CC0 1.0 Universell (CC0 1.0)","name":"@irgendlink","url":"https:\/\/fotos.railway-stations.org\/fotos\/de\/1559.jpg"}, {"title":"Annaburg","lat":"51.7286308101717","lon":"13.0329032739003","license":"CC0 1.0 Universell (CC0 1.0)","name":"@RecumbentTravel","url":"https:\/\/fotos.railway-stations.org\/fotos\/de\/156_0.jpg"}, {"title":"Elsholz","lat":"52.2037077321257","lon":"12.9548442363739","license":"CC0 1.0 Universell (CC0 1.0)","name":"@RecumbentTravel","url":"https:\/\/fotos.railway-stations.org\/fotos\/de\/1562.jpg"}, {"title":"Elsnigk (Anh)","lat":"51.7908068287108","lon":"12.0590955018997","license":"CC BY-SA 4.0","name":"@tmmd","url":"https:\/\/fotos.railway-stations.org\/fotos\/de\/1564.jpg"}, {"title":"Elster (Elbe)","lat":"51.8322675435189","lon":"12.8274933232201","license":"CC0 1.0 Universell (CC0 1.0)","name":"@IngoCRunge","url":"https:\/\/fotos.railway-stations.org\/fotos\/de\/1566.jpg"}, {"title":"Elsterberg","lat":"50.6135082018608","lon":"12.1673881399691","license":"CC0 1.0 Universell (CC0 1.0)","name":"@Onkel_N","url":"https:\/\/fotos.railway-stations.org\/fotos\/de\/1567.jpg"}, {"title":"Elsterberg Kunstseidenwerk","lat":"50.6051059742071","lon":"12.1599340438843","license":"CC0 1.0 Universell (CC0 1.0)","name":"@Onkel_N","url":"https:\/\/fotos.railway-stations.org\/fotos\/de\/1568.jpg"}, {"title":"Elsterwerda","lat":"51.4600426751219","lon":"13.5165525334222","license":"CC0 1.0 Universell (CC0 1.0)","name":"ingoebel","url":"https:\/\/fotos.railway-stations.org\/fotos\/de\/1569.jpg"}, {"title":"Eltersdorf","lat":"49.5521606323718","lon":"10.9964219387972","license":"CC0 1.0 Universell (CC0 1.0)","name":"KatrinBechhold","url":"https:\/\/fotos.railway-stations.org\/fotos\/de\/1571.jpg"}, {"title":"Eltville","lat":"50.0275549533978","lon":"8.12174626460443","license":"CC0 1.0 Universell (CC0 1.0)","name":"@stefanopitz","url":"https:\/\/fotos.railway-stations.org\/fotos\/de\/1572_1.jpg"}, {"title":"Elxleben","lat":"51.0432627418938","lon":"10.946658834815","license":"CC0 1.0 Universell (CC0 1.0)","name":"@khgdrn","url":"https:\/\/fotos.railway-stations.org\/fotos\/de\/1573.jpg"}, {"title":"Elz (Kr Limburg\/Lahn)","lat":"50.4145251109122","lon":"8.03841590881347","license":"CC0 1.0 Universell (CC0 1.0)","name":"Gaby Becker","url":"https:\/\/fotos.railway-stations.org\/fotos\/de\/1574_0.jpg"}, {"title":"Elz (Kr Limburg\/Lahn) S\u00fcd","lat":"50.4085289266767","lon":"8.03240239620209","license":"CC0 1.0 Universell (CC0 1.0)","name":"Gaby Becker","url":"https:\/\/fotos.railway-stations.org\/fotos\/de\/1575.jpg"}, {"title":"Elzach","lat":"48.1710358360499","lon":"8.07075351476671","license":"CC0 1.0 Universell (CC0 1.0)","name":"Hans Schlegel","url":"https:\/\/fotos.railway-stations.org\/fotos\/de\/1576.jpg"}, {"title":"Elze (Han)","lat":"52.1203788443953","lon":"9.74697885842157","license":"CC0 1.0 Universell (CC0 1.0)","name":"@pihalbe","url":"https:\/\/fotos.railway-stations.org\/fotos\/de\/1577_1.jpg"}, {"title":"Annweiler am Trifels","lat":"49.2054671953757","lon":"7.96626091003417","license":"CC0 1.0 Universell (CC0 1.0)","name":"@JoachimWeiss","url":"https:\/\/fotos.railway-stations.org\/fotos\/de\/158_1.jpg"}, {"title":"Emden Hbf","lat":"53.3689402997526","lon":"7.195143699646","license":"CC0 1.0 Universell (CC0 1.0)","name":"Sandra Becker","url":"https:\/\/fotos.railway-stations.org\/fotos\/de\/1580.jpg"}, {"title":"Emmelshausen","lat":"50.1576212056989","lon":"7.5604748725891","license":"CC0 1.0 Universell (CC0 1.0)","name":"zwitscher_ralph","url":"https:\/\/fotos.railway-stations.org\/fotos\/de\/1583.jpg"}, {"title":"Emmendingen","lat":"48.1193268777084","lon":"7.84779757261276","license":"CC0 1.0 Universell (CC0 1.0)","name":"Hans Schlegel","url":"https:\/\/fotos.railway-stations.org\/fotos\/de\/1584.jpg"}, {"title":"Emmerich","lat":"51.8341314010864","lon":"6.25664591789245","license":"CC0 1.0 Universell (CC0 1.0)","name":"@irgendlink","url":"https:\/\/fotos.railway-stations.org\/fotos\/de\/1585.jpg"}, {"title":"Empel-Rees","lat":"51.7982320748783","lon":"6.41706347465515","license":"CC0 1.0 Universell (CC0 1.0)","name":"BirgitFranik","url":"https:\/\/fotos.railway-stations.org\/fotos\/de\/1588.jpg"}, {"title":"Empelde","lat":"52.3401026503705","lon":"9.66892540454865","license":"CC BY-SA 4.0","name":"@nortix","url":"https:\/\/fotos.railway-stations.org\/fotos\/de\/1589.jpg"}, {"title":"Emsdetten","lat":"52.1763914850261","lon":"7.53162947027887","license":"CC0 1.0 Universell (CC0 1.0)","name":"BirgitFranik","url":"https:\/\/fotos.railway-stations.org\/fotos\/de\/1590.jpg"}, {"title":"Emskirchen","lat":"49.5550061677216","lon":"10.7104110717774","license":"CC0 1.0 Universell (CC0 1.0)","name":"@N1tr0glyc3r1n","url":"https:\/\/fotos.railway-stations.org\/fotos\/de\/1591.jpg"}, {"title":"Engelsdorf Werkst\u00e4tten","lat":"51.340246007045","lon":"12.4567794799805","license":"CC0 1.0 Universell (CC0 1.0)","name":"@IngoCRunge","url":"https:\/\/fotos.railway-stations.org\/fotos\/de\/1596.jpg"}, {"title":"Engelskirchen","lat":"50.9866149636496","lon":"7.40769242539124","license":"CC BY-SA 4.0","name":"karin1210","url":"https:\/\/fotos.railway-stations.org\/fotos\/de\/1597.jpg"}, {"title":"Engen","lat":"47.8562524429159","lon":"8.77275671277727","license":"CC0 1.0 Universell (CC0 1.0)","name":"@jkbschk","url":"https:\/\/fotos.railway-stations.org\/fotos\/de\/1598_0.jpg"}, {"title":"Engers","lat":"50.425956909615","lon":"7.54701391510341","license":"CC0 1.0 Universell (CC0 1.0)","name":"@pihalbe","url":"https:\/\/fotos.railway-stations.org\/fotos\/de\/1599.jpg"}, {"title":"Anrath","lat":"51.2857139652638","lon":"6.45064389703647","license":"CC0 1.0 Universell (CC0 1.0)","name":"Volker Goebels","url":"https:\/\/fotos.railway-stations.org\/fotos\/de\/160.jpg"}, {"title":"Enkenbach","lat":"49.4903431940231","lon":"7.89950146344289","license":"CC0 1.0 Universell (CC0 1.0)","name":"@irgendlink","url":"https:\/\/fotos.railway-stations.org\/fotos\/de\/1602.jpg"}, {"title":"Ennepetal","lat":"51.3047833422377","lon":"7.34354239513432","license":"CC0 1.0 Universell (CC0 1.0)","name":"@__4510471","url":"https:\/\/fotos.railway-stations.org\/fotos\/de\/1603.jpg"}, {"title":"Enspel","lat":"50.6157270972777","lon":"7.88271188735962","license":"CC0 1.0 Universell (CC0 1.0)","name":"@pihalbe","url":"https:\/\/fotos.railway-stations.org\/fotos\/de\/1606.jpg"}, {"title":"Speyer Nord-West","lat":"49.3337678361345","lon":"8.41901438711829","license":"CC0 1.0 Universell (CC0 1.0)","name":"@stefanopitz","url":"https:\/\/fotos.railway-stations.org\/fotos\/de\/1607.jpg"}, {"title":"Enzisweiler","lat":"47.5641308489993","lon":"9.66528654098511","license":"CC0 1.0 Universell (CC0 1.0)","name":"Hans Schlegel","url":"https:\/\/fotos.railway-stations.org\/fotos\/de\/1609.jpg"}, {"title":"Ansbach","lat":"49.2980249301648","lon":"10.5777729199483","license":"CC0 1.0 Universell (CC0 1.0)","name":"@JoachimWeiss","url":"https:\/\/fotos.railway-stations.org\/fotos\/de\/161.jpg"}, {"title":"Epe (Westf)","lat":"52.1838000512786","lon":"7.03012347221375","license":"CC0 1.0 Universell (CC0 1.0)","name":"BirgitFranik","url":"https:\/\/fotos.railway-stations.org\/fotos\/de\/1610.jpg"}, {"title":"Eppelsheim (Rheinhess)","lat":"49.7001422877752","lon":"8.16269874572753","license":"CC0 1.0 Universell (CC0 1.0)","name":"Gaby Becker","url":"https:\/\/fotos.railway-stations.org\/fotos\/de\/1613.jpg"}, {"title":"Eppertshausen","lat":"49.945486328895","lon":"8.84226679801942","license":"CC0 1.0 Universell (CC0 1.0)","name":"@AgaundDeti","url":"https:\/\/fotos.railway-stations.org\/fotos\/de\/1614_1.jpg"}, {"title":"Eppstein","lat":"50.139623283304","lon":"8.38791517110971","license":"CC0 1.0 Universell (CC0 1.0)","name":"@khgdrn","url":"https:\/\/fotos.railway-stations.org\/fotos\/de\/1616_0.jpg"}, {"title":"Erbach (Odenw)","lat":"49.6567184803392","lon":"8.98958371857464","license":"CC0 1.0 Universell (CC0 1.0)","name":"Thorsten S.","url":"https:\/\/fotos.railway-stations.org\/fotos\/de\/1617_1.jpg"}, {"title":"Erbach (Odenw) Nord","lat":"49.6699100052924","lon":"8.99012088775634","license":"CC0 1.0 Universell (CC0 1.0)","name":"Thorsten S.","url":"https:\/\/fotos.railway-stations.org\/fotos\/de\/1618_1.jpg"}, {"title":"Erbach (Rheingau)","lat":"50.0234765754987","lon":"8.09519112110138","license":"CC0 1.0 Universell (CC0 1.0)","name":"@stefanopitz","url":"https:\/\/fotos.railway-stations.org\/fotos\/de\/1619_1.jpg"}, {"title":"Nistertal-Bad Marienberg","lat":"50.6325253553498","lon":"7.90028850033028","license":"CC0 1.0 Universell (CC0 1.0)","name":"@pihalbe","url":"https:\/\/fotos.railway-stations.org\/fotos\/de\/1620.jpg"}, {"title":"Erbach (W\u00fcrtt)","lat":"48.3255589356554","lon":"9.89466905593873","license":"CC0 1.0 Universell (CC0 1.0)","name":"@LiegeradTurust","url":"https:\/\/fotos.railway-stations.org\/fotos\/de\/1621.jpg"}, {"title":"Erding","lat":"48.3035989711988","lon":"11.912379830154","license":"CC0 1.0 Universell (CC0 1.0)","name":"zwetschgenmann","url":"https:\/\/fotos.railway-stations.org\/fotos\/de\/1626.jpg"}, {"title":"Gie\u00dfen Erdkauter Weg","lat":"50.5715761527683","lon":"8.68307492949745","license":"CC0 1.0 Universell (CC0 1.0)","name":"Gaby Becker","url":"https:\/\/fotos.railway-stations.org\/fotos\/de\/1627.jpg"}, {"title":"Erdmannhausen","lat":"48.9482903757636","lon":"9.29914534091949","license":"CC0 1.0 Universell (CC0 1.0)","name":"@tobiasstehr","url":"https:\/\/fotos.railway-stations.org\/fotos\/de\/1628_0.jpg"}, {"title":"Anwanden","lat":"49.4115813524093","lon":"10.9303455095772","license":"CC0 1.0 Universell (CC0 1.0)","name":"@FNC2908","url":"https:\/\/fotos.railway-stations.org\/fotos\/de\/163.jpg"}, {"title":"Erftstadt","lat":"50.8072129345873","lon":"6.83311194332723","license":"CC0 1.0 Universell (CC0 1.0)","name":"Volker Goebels","url":"https:\/\/fotos.railway-stations.org\/fotos\/de\/1631.jpg"}, {"title":"Erfurt Hbf","lat":"50.9722198499415","lon":"11.0382270812988","license":"CC0 1.0 Universell (CC0 1.0)","name":"@pihalbe","url":"https:\/\/fotos.railway-stations.org\/fotos\/de\/1634_1.jpg"}, {"title":"Erfurt Nord","lat":"51.0032547017813","lon":"11.0293758324994","license":"CC0 1.0 Universell (CC0 1.0)","name":"@thor11","url":"https:\/\/fotos.railway-stations.org\/fotos\/de\/1635_3.jpg"}, {"title":"Erfurt Ost","lat":"51.0154770929156","lon":"11.0439077019692","license":"CC0 1.0 Universell (CC0 1.0)","name":"@thor11","url":"https:\/\/fotos.railway-stations.org\/fotos\/de\/1636_1.jpg"}, {"title":"Erfurt-Gispersleben","lat":"51.0222078219369","lon":"11.0000458359718","license":"CC0 1.0 Universell (CC0 1.0)","name":"@thor11","url":"https:\/\/fotos.railway-stations.org\/fotos\/de\/1638_2.jpg"}, {"title":"Anzefahr","lat":"50.8455045697029","lon":"8.85996222496032","license":"CC0 1.0 Universell (CC0 1.0)","name":"Gaby Becker","url":"https:\/\/fotos.railway-stations.org\/fotos\/de\/164.jpg"}, {"title":"Ergste","lat":"51.4247012296024","lon":"7.57747650146484","license":"CC0 1.0 Universell (CC0 1.0)","name":"@__4510471","url":"https:\/\/fotos.railway-stations.org\/fotos\/de\/1641.jpg"}, {"title":"Eriskirch","lat":"47.6284412958403","lon":"9.52659243629091","license":"CC0 1.0 Universell (CC0 1.0)","name":"Hans Schlegel","url":"https:\/\/fotos.railway-stations.org\/fotos\/de\/1642.jpg"}, {"title":"Erkelenz","lat":"51.0765747539558","lon":"6.32153391838074","license":"CC0 1.0 Universell (CC0 1.0)","name":"@Dgerkrath","url":"https:\/\/fotos.railway-stations.org\/fotos\/de\/1643.jpg"}, {"title":"Erkner","lat":"52.4279531483122","lon":"13.7517285346985","license":"CC0 1.0 Universell (CC0 1.0)","name":"Sandra Becker","url":"https:\/\/fotos.railway-stations.org\/fotos\/de\/1645.jpg"}, {"title":"Erkrath","lat":"51.2204015089582","lon":"6.90240122551142","license":"CC0 1.0 Universell (CC0 1.0)","name":"@Dgerkrath","url":"https:\/\/fotos.railway-stations.org\/fotos\/de\/1646.jpg"}, {"title":"Anzenkirchen","lat":"48.4348016078379","lon":"13.0219249400579","license":"CC0 1.0 Universell (CC0 1.0)","name":"FlorianSchmidt","url":"https:\/\/fotos.railway-stations.org\/fotos\/de\/165.jpg"}, {"title":"Erlangen","lat":"49.5960018275596","lon":"11.001690030098","license":"CC0 1.0 Universell (CC0 1.0)","name":"KatrinBechhold","url":"https:\/\/fotos.railway-stations.org\/fotos\/de\/1650.jpg"}, {"title":"Erlangen-Bruck","lat":"49.5703864747558","lon":"10.9972339868545","license":"CC0 1.0 Universell (CC0 1.0)","name":"@FNC2908","url":"https:\/\/fotos.railway-stations.org\/fotos\/de\/1651.jpg"}, {"title":"Erlau (Sachs)","lat":"51.0088202371734","lon":"12.9429638385773","license":"CC0 1.0 Universell (CC0 1.0)","name":"@IngoCRunge","url":"https:\/\/fotos.railway-stations.org\/fotos\/de\/1653.jpg"}, {"title":"Erlenbach am Main","lat":"49.8043005795799","lon":"9.15452746728966","license":"CC0 1.0 Universell (CC0 1.0)","name":"Thorsten S.","url":"https:\/\/fotos.railway-stations.org\/fotos\/de\/1656_1.jpg"}, {"title":"Erndtebr\u00fcck","lat":"50.9912755075748","lon":"8.25539946556092","license":"CC0 1.0 Universell (CC0 1.0)","name":"Volker Goebels","url":"https:\/\/fotos.railway-stations.org\/fotos\/de\/1659.jpg"}, {"title":"Apolda","lat":"51.0308533644923","lon":"11.5259906760274","license":"CC BY-SA 4.0","name":"@tmmd","url":"https:\/\/fotos.railway-stations.org\/fotos\/de\/166_0.jpg"}, {"title":"Erpel (Rhein)","lat":"50.5823924966395","lon":"7.24089039724417","license":"CC0 1.0 Universell (CC0 1.0)","name":"@irgendlink","url":"https:\/\/fotos.railway-stations.org\/fotos\/de\/1664.jpg"}, {"title":"Erpolzheim","lat":"49.4883451916326","lon":"8.21071247948874","license":"CC0 1.0 Universell (CC0 1.0)","name":"AndreasFranz","url":"https:\/\/fotos.railway-stations.org\/fotos\/de\/1665.jpg"}, {"title":"Erzhausen","lat":"49.9511859671417","lon":"8.65095645189285","license":"CC0 1.0 Universell (CC0 1.0)","name":"@stefanopitz","url":"https:\/\/fotos.railway-stations.org\/fotos\/de\/1668_1.jpg"}, {"title":"Erzingen (Baden)","lat":"47.6600211814578","lon":"8.43039061132341","license":"CC0 1.0 Universell (CC0 1.0)","name":"Hans Schlegel","url":"https:\/\/fotos.railway-stations.org\/fotos\/de\/1669.jpg"}, {"title":"Nottuln-Appelh\u00fclsen","lat":"51.8923005343949","lon":"7.42679137449998","license":"CC0 1.0 Universell (CC0 1.0)","name":"@RecumbentTravel","url":"https:\/\/fotos.railway-stations.org\/fotos\/de\/167_1.jpg"}, {"title":"Eschborn","lat":"50.1437561021852","lon":"8.56066250565028","license":"CC0 1.0 Universell (CC0 1.0)","name":"@sven_solterbeck","url":"https:\/\/fotos.railway-stations.org\/fotos\/de\/1671_1.jpg"}, {"title":"Eschborn S\u00fcd","lat":"50.1335038097879","lon":"8.57851713895797","license":"CC0 1.0 Universell (CC0 1.0)","name":"@sven_solterbeck","url":"https:\/\/fotos.railway-stations.org\/fotos\/de\/1672_1.jpg"}, {"title":"Eschenau (b Heilbronn)","lat":"49.1437490153451","lon":"9.40272186253523","license":"CC0 1.0 Universell (CC0 1.0)","name":"zwetschgenmann","url":"https:\/\/fotos.railway-stations.org\/fotos\/de\/1674.jpg"}, {"title":"Eschenau (Mittelfr)","lat":"49.5753772772652","lon":"11.1983156204224","license":"CC0 1.0 Universell (CC0 1.0)","name":"Marius K\u00fcnzl","url":"https:\/\/fotos.railway-stations.org\/fotos\/de\/1675.jpg"}, {"title":"Eschenlohe","lat":"47.6016772405343","lon":"11.1877781152725","license":"CC0 1.0 Universell (CC0 1.0)","name":"Hans Schlegel","url":"https:\/\/fotos.railway-stations.org\/fotos\/de\/1677.jpg"}, {"title":"Eschhofen","lat":"50.3933356528451","lon":"8.10381174087524","license":"CC0 1.0 Universell (CC0 1.0)","name":"@khgdrn","url":"https:\/\/fotos.railway-stations.org\/fotos\/de\/1678.jpg"}, {"title":"Appenweier","lat":"48.5418248287358","lon":"7.97347094331468","license":"CC0 1.0 Universell (CC0 1.0)","name":"Gaby Becker","url":"https:\/\/fotos.railway-stations.org\/fotos\/de\/168_1.jpg"}, {"title":"Eschweiler Hbf","lat":"50.8135422043611","lon":"6.25206450352797","license":"CC0 1.0 Universell (CC0 1.0)","name":"Rudolf Starosta","url":"https:\/\/fotos.railway-stations.org\/fotos\/de\/1680_1.jpg"}, {"title":"Esens (Ostfriesl)","lat":"53.6362377336005","lon":"7.61598487831142","license":"CC0 1.0 Universell (CC0 1.0)","name":"@RecumbentTravel","url":"https:\/\/fotos.railway-stations.org\/fotos\/de\/1681.jpg"}, {"title":"Essen Hbf","lat":"51.4515032182716","lon":"7.01438204194959","license":"CC0 1.0 Universell (CC0 1.0)","name":"@Dgerkrath","url":"https:\/\/fotos.railway-stations.org\/fotos\/de\/1690_1.jpg"},